{"type":"FeatureCollection","features":[{"type":"Feature","properties":{"name":"Baluchaung 1","status":"Complete","dam_type":"CG","function":"Hydropower","river":"Baluchaung","state":"Kayah","basin":"Thanlwin","capacity_mw":28,"height_m":"11","year":"1992","risk":"low","color":"#2e7d32","label":"Low Risk (>80 km)","distanceKm":"114.3"},"geometry":{"type":"Point","coordinates":[97.287,19.648]}},{"type":"Feature","properties":{"name":"Baluchaung 2","status":"Complete","dam_type":"Weir","function":"Hydropower","river":"Baluchaung","state":"Kayah","basin":"Thanlwin","capacity_mw":168,"height_m":"-","year":"1974","risk":"low","color":"#2e7d32","label":"Low Risk (>80 km)","distanceKm":"119.8"},"geometry":{"type":"Point","coordinates":[97.358,19.557]}},{"type":"Feature","properties":{"name":"Baluchaung 3","status":"Complete","dam_type":"Intake","function":"Hydropower","river":"Baluchaung","state":"Kayah","basin":"Thanlwin","capacity_mw":52,"height_m":"-","year":"2014","risk":"low","color":"#2e7d32","label":"Low Risk (>80 km)","distanceKm":"123.7"},"geometry":{"type":"Point","coordinates":[97.397,19.546]}},{"type":"Feature","properties":{"name":"Baluchaung (upper)","status":"Under Construction","dam_type":"","function":"Hydropower","river":"Baluchaung","state":"Shan","basin":"Thanlwin","capacity_mw":30,"height_m":"35","year":"2019","risk":"low","color":"#2e7d32","label":"Low Risk (>80 km)","distanceKm":"83.5"},"geometry":{"type":"Point","coordinates":[96.781918,20.484592]}},{"type":"Feature","properties":{"name":"Bawgata","status":"Proposed","dam_type":"Rockfill","function":"Hydropower","river":"Bawgata","state":"Bago","basin":"Sittaung","capacity_mw":160,"height_m":"80","year":"2020","risk":"medium","color":"#ed6c02","label":"Medium Risk (30–80 km)","distanceKm":"48.1"},"geometry":{"type":"Point","coordinates":[96.848496,18.255561]}},{"type":"Feature","properties":{"name":"Belin","status":"Proposed","dam_type":"","function":"Hydropower","river":"Bilin River","state":"Mon","basin":"Bilin","capacity_mw":280,"height_m":"131","year":"2021","risk":"low","color":"#2e7d32","label":"Low Risk (>80 km)","distanceKm":"82.9"},"geometry":{"type":"Point","coordinates":[97.243546,17.519723]}},{"type":"Feature","properties":{"name":"Buywa (upper)","status":"Proposed","dam_type":"","function":"Multi-purpose","river":"Mon Chaung","state":"Magway","basin":"Ayeyarwady","capacity_mw":150,"height_m":"138","year":"2019","risk":"low","color":"#2e7d32","label":"Low Risk (>80 km)","distanceKm":"Infinity"},"geometry":{"type":"Point","coordinates":[94.0818,20.76609]}},{"type":"Feature","properties":{"name":"Buywa","status":"Under Construction","dam_type":"","function":"Multi-purpose","river":"Mon Chaung","state":"Magway","basin":"Ayeyarwady","capacity_mw":42,"height_m":"46","year":"2018","risk":"low","color":"#2e7d32","label":"Low Risk (>80 km)","distanceKm":"Infinity"},"geometry":{"type":"Point","coordinates":[94.150833,20.658056]}},{"type":"Feature","properties":{"name":"Chipwi","status":"Proposed","dam_type":"CFRD","function":"Hydropower","river":"N'Mai  Hka","state":"Kachin","basin":"Ayeyarwady","capacity_mw":3400,"height_m":"203","year":"2020","risk":"low","color":"#2e7d32","label":"Low Risk (>80 km)","distanceKm":"Infinity"},"geometry":{"type":"Point","coordinates":[98.12572,25.8905]}},{"type":"Feature","properties":{"name":"Chipwi Nge","status":"Complete","dam_type":"CG","function":"Hydropower","river":"Chipwi Hka","state":"Kachin","basin":"Ayeyarwady","capacity_mw":99,"height_m":"48","year":"2013","risk":"low","color":"#2e7d32","label":"Low Risk (>80 km)","distanceKm":"Infinity"},"geometry":{"type":"Point","coordinates":[98.184039,25.806073]}},{"type":"Feature","properties":{"name":"Dapein 1","status":"Complete","dam_type":"Concrete","function":"Hydropower","river":"Dapein","state":"Kachin","basin":"Ayeyarwady","capacity_mw":240,"height_m":"46","year":"2011","risk":"low","color":"#2e7d32","label":"Low Risk (>80 km)","distanceKm":"139.2"},"geometry":{"type":"Point","coordinates":[97.525448,24.421451]}},{"type":"Feature","properties":{"name":"Dapein 2","status":"Proposed","dam_type":"CG","function":"Hydropower","river":"Dapein","state":"Kachin","basin":"Ayeyarwady","capacity_mw":140,"height_m":"59","year":"2022","risk":"low","color":"#2e7d32","label":"Low Risk (>80 km)","distanceKm":"130.7"},"geometry":{"type":"Point","coordinates":[97.4214,24.36827]}},{"type":"Feature","properties":{"name":"Deedoke","status":"Proposed","dam_type":"RCC Gravity Dam","function":"Hydropower","river":"Lower Myitnge","state":"Mandalay","basin":"Ayeyarwady","capacity_mw":60,"height_m":"27","year":"2020","risk":"medium","color":"#ed6c02","label":"Medium Risk (30–80 km)","distanceKm":"50.2"},"geometry":{"type":"Point","coordinates":[96.404455,21.68723]}},{"type":"Feature","properties":{"name":"Dum Ban","status":"Proposed","dam_type":"CG","function":"Hydropower","river":"N'Mai  Hka Tributary","state":"Kachin","basin":"Ayeyarwady","capacity_mw":130,"height_m":"81","year":"2020","risk":"low","color":"#2e7d32","label":"Low Risk (>80 km)","distanceKm":"Infinity"},"geometry":{"type":"Point","coordinates":[97.907021,25.511556]}},{"type":"Feature","properties":{"name":"Gaw Lan","status":"Proposed","dam_type":"CG","function":"Hydropower","river":"Naw Chang  Hka","state":"Kachin","basin":"","capacity_mw":120,"height_m":"47","year":"2026","risk":"low","color":"#2e7d32","label":"Low Risk (>80 km)","distanceKm":"Infinity"},"geometry":{"type":"Point","coordinates":[98.580461,26.051936]}},{"type":"Feature","properties":{"name":"Hawkham (upper)","status":"Proposed","dam_type":"","function":"Hydropower","river":"Nam Pawn","state":"Kayah","basin":"Thanlwin","capacity_mw":180,"height_m":"72","year":"2020","risk":"low","color":"#2e7d32","label":"Low Risk (>80 km)","distanceKm":"118.5"},"geometry":{"type":"Point","coordinates":[97.399722,19.211667]}},{"type":"Feature","properties":{"name":"He Kou","status":"Proposed","dam_type":"","function":"Hydropower","river":"Nam Lwe","state":"Shan","basin":"Mekong","capacity_mw":138,"height_m":null,"year":"2025","risk":"low","color":"#2e7d32","label":"Low Risk (>80 km)","distanceKm":"Infinity"},"geometry":{"type":"Point","coordinates":[100.720928,21.341291]}},{"type":"Feature","properties":{"name":"Hkankawn","status":"Proposed","dam_type":"","function":"Hydropower","river":"Naw Chang  Hka","state":"Kachin","basin":"","capacity_mw":140,"height_m":"42","year":"2026","risk":"low","color":"#2e7d32","label":"Low Risk (>80 km)","distanceKm":"Infinity"},"geometry":{"type":"Point","coordinates":[98.429523,26.023865]}},{"type":"Feature","properties":{"name":"Pisa","status":"Proposed","dam_type":"CFRD","function":"Hydropower","river":"N'Mai  Hka","state":"Kachin","basin":"Ayeyarwady","capacity_mw":2000,"height_m":"153","year":"2030","risk":"low","color":"#2e7d32","label":"Low Risk (>80 km)","distanceKm":"Infinity"},"geometry":{"type":"Point","coordinates":[98.34309,26.598389]}},{"type":"Feature","properties":{"name":"Tamanthi","status":"Proposed","dam_type":"","function":"Hydropower","river":"Chindwin","state":"Sagaing","basin":"Chindwin","capacity_mw":1200,"height_m":"74","year":null,"risk":"low","color":"#2e7d32","label":"Low Risk (>80 km)","distanceKm":"Infinity"},"geometry":{"type":"Point","coordinates":[95.296955,25.322227]}},{"type":"Feature","properties":{"name":"Hutgyi","status":"Proposed","dam_type":"RCC Gravity Dam","function":"Hydropower","river":"Thanlwin Mainstem","state":"Kayin","basin":"Thanlwin","capacity_mw":1360,"height_m":"118","year":"2020","risk":"low","color":"#2e7d32","label":"Low Risk (>80 km)","distanceKm":"345.0"},"geometry":{"type":"Point","coordinates":[97.747,17.528]}},{"type":"Feature","properties":{"name":"Kabaung","status":"Complete","dam_type":"Rock/Embankment?","function":"Multi-purpose","river":"Kabaung Chaung","state":"Bago","basin":"Sittaung","capacity_mw":30,"height_m":"61","year":"2008","risk":"high","color":"#d32f2f","label":"High Risk (0–30 km)","distanceKm":"9.3"},"geometry":{"type":"Point","coordinates":[96.220825,18.896717]}},{"type":"Feature","properties":{"name":"Keng Tawng","status":"Complete","dam_type":"CG","function":"Hydropower","river":"Nam Teng","state":"Shan","basin":"Thanlwin","capacity_mw":54,"height_m":"27","year":"2009","risk":"low","color":"#2e7d32","label":"Low Risk (>80 km)","distanceKm":"Infinity"},"geometry":{"type":"Point","coordinates":[98.29305,20.598345]}},{"type":"Feature","properties":{"name":"Keng Tawng (upper)","status":"Under Construction","dam_type":"Rockfill","function":"Hydropower","river":"Nam Teng","state":"Shan","basin":"Thanlwin","capacity_mw":51,"height_m":"56","year":"2019","risk":"low","color":"#2e7d32","label":"Low Risk (>80 km)","distanceKm":"Infinity"},"geometry":{"type":"Point","coordinates":[98.184077,20.74558]}},{"type":"Feature","properties":{"name":"Keng Tong","status":"Proposed","dam_type":"","function":"Hydropower","river":"Nam Lwe","state":"Shan","basin":"Mekong","capacity_mw":170,"height_m":null,"year":"2025","risk":"low","color":"#2e7d32","label":"Low Risk (>80 km)","distanceKm":"Infinity"},"geometry":{"type":"Point","coordinates":[99.500985,21.617799]}},{"type":"Feature","properties":{"name":"Keng Yang","status":"Proposed","dam_type":"","function":"Hydropower","river":"Nam Lwe","state":"Shan","basin":"Mekong","capacity_mw":70,"height_m":null,"year":"2025","risk":"low","color":"#2e7d32","label":"Low Risk (>80 km)","distanceKm":"Infinity"},"geometry":{"type":"Point","coordinates":[100.5619,21.3469]}},{"type":"Feature","properties":{"name":"Khaunglanphu","status":"Proposed","dam_type":"CFRD","function":"Hydropower","river":"N'Mai  Hka","state":"Kachin","basin":"","capacity_mw":2700,"height_m":"223","year":"2030","risk":"low","color":"#2e7d32","label":"Low Risk (>80 km)","distanceKm":"Infinity"},"geometry":{"type":"Point","coordinates":[98.376808,26.849507]}},{"type":"Feature","properties":{"name":"Kinda","status":"Complete","dam_type":"Rockfill","function":"Multi-purpose","river":"Panlaung Chaung","state":"Shan","basin":"Ayeyarwady","capacity_mw":56,"height_m":"72","year":"1990","risk":"medium","color":"#ed6c02","label":"Medium Risk (30–80 km)","distanceKm":"40.1"},"geometry":{"type":"Point","coordinates":[96.321037,21.160437]}},{"type":"Feature","properties":{"name":"Kun Chaung","status":"Complete","dam_type":"Earth/Rock","function":"Multi-purpose","river":"Kun Chaung","state":"Bago","basin":"","capacity_mw":60,"height_m":"73","year":"2012","risk":"high","color":"#d32f2f","label":"High Risk (0–30 km)","distanceKm":"0.9"},"geometry":{"type":"Point","coordinates":[96.363854,18.420367]}},{"type":"Feature","properties":{"name":"KunLong","status":"Proposed","dam_type":"CG","function":"Hydropower","river":"Thanlwin Mainstem","state":"Shan","basin":"Thanlwin","capacity_mw":1400,"height_m":"103","year":"2023","risk":"low","color":"#2e7d32","label":"Low Risk (>80 km)","distanceKm":"Infinity"},"geometry":{"type":"Point","coordinates":[98.611111,23.531667]}},{"type":"Feature","properties":{"name":"Kyee Ohn Kyee Wa","status":"Complete","dam_type":"Earth","function":"Multi-purpose","river":"Mon Chaung","state":"Magway","basin":"Ayeyarwady","capacity_mw":74,"height_m":"50","year":"2012","risk":"low","color":"#2e7d32","label":"Low Risk (>80 km)","distanceKm":"Infinity"},"geometry":{"type":"Point","coordinates":[94.416,20.331]}},{"type":"Feature","properties":{"name":"Lawngdin","status":"Proposed","dam_type":"","function":"Hydropower","river":"Naw Chang  Hka","state":"Kachin","basin":"Ayeyarwady","capacity_mw":600,"height_m":"79","year":"2026","risk":"low","color":"#2e7d32","label":"Low Risk (>80 km)","distanceKm":"Infinity"},"geometry":{"type":"Point","coordinates":[98.277743,26.043012]}},{"type":"Feature","properties":{"name":"Lemro 1","status":"Proposed","dam_type":"","function":"Hydropower","river":"Le Mro","state":"Chin","basin":"Rakhine","capacity_mw":600,"height_m":null,"year":null,"risk":"low","color":"#2e7d32","label":"Low Risk (>80 km)","distanceKm":"Infinity"},"geometry":{"type":"Point","coordinates":[93.350503,20.857443]}},{"type":"Feature","properties":{"name":"Laza","status":"Proposed","dam_type":"CFRD","function":"Hydropower","river":"Mali Hka","state":"Kachin","basin":"Ayeyarwady","capacity_mw":1900,"height_m":"196","year":"2025","risk":"low","color":"#2e7d32","label":"Low Risk (>80 km)","distanceKm":"Infinity"},"geometry":{"type":"Point","coordinates":[97.77695,26.491779]}},{"type":"Feature","properties":{"name":"Lemro 2","status":"Proposed","dam_type":"","function":"Hydropower","river":"Le Mro","state":"Rakhine","basin":"Rakhine","capacity_mw":90,"height_m":null,"year":null,"risk":"low","color":"#2e7d32","label":"Low Risk (>80 km)","distanceKm":"Infinity"},"geometry":{"type":"Point","coordinates":[93.268689,20.740347]}},{"type":"Feature","properties":{"name":"Nam Pawn (lower)","status":"Proposed","dam_type":"","function":"Hydropower","river":"Nam Pawn","state":"Kayah","basin":"Thanlwin","capacity_mw":105,"height_m":"88","year":"2020","risk":"low","color":"#2e7d32","label":"Low Risk (>80 km)","distanceKm":"125.0"},"geometry":{"type":"Point","coordinates":[97.408611,19.555]}},{"type":"Feature","properties":{"name":"Mong Ton","status":"Proposed","dam_type":"","function":"Hydropower","river":"Thanlwin Mainstem","state":"Shan","basin":"Thanlwin","capacity_mw":7000,"height_m":"241","year":"2030","risk":"low","color":"#2e7d32","label":"Low Risk (>80 km)","distanceKm":"Infinity"},"geometry":{"type":"Point","coordinates":[98.65,20.456389]}},{"type":"Feature","properties":{"name":"Manipur","status":"Under Construction","dam_type":"","function":"Multi-purpose","river":"Manipur","state":"Chin","basin":"Chindwin","capacity_mw":380,"height_m":"168","year":"2020","risk":"low","color":"#2e7d32","label":"Low Risk (>80 km)","distanceKm":"Infinity"},"geometry":{"type":"Point","coordinates":[93.943248,22.804356]}},{"type":"Feature","properties":{"name":"Mantong","status":"Proposed","dam_type":"CFRD","function":"Hydropower","river":"Nam Ma","state":"Shan","basin":"Thanlwin","capacity_mw":225,"height_m":"109","year":"2024","risk":"low","color":"#2e7d32","label":"Low Risk (>80 km)","distanceKm":"Infinity"},"geometry":{"type":"Point","coordinates":[98.55727,22.97469]}},{"type":"Feature","properties":{"name":"Mone Chaung","status":"Complete","dam_type":"Rockfill","function":"Multi-purpose","river":"Mon Chaung","state":"Magway","basin":"Ayeyarwady","capacity_mw":75,"height_m":"61","year":"2004","risk":"low","color":"#2e7d32","label":"Low Risk (>80 km)","distanceKm":"Infinity"},"geometry":{"type":"Point","coordinates":[94.255325,20.479942]}},{"type":"Feature","properties":{"name":"Mongwa","status":"Complete","dam_type":"Gravity Dam","function":"Hydropower","river":"Nam Lwe","state":"Shan","basin":"Mekong","capacity_mw":66,"height_m":"51","year":"2017","risk":"low","color":"#2e7d32","label":"Low Risk (>80 km)","distanceKm":"Infinity"},"geometry":{"type":"Point","coordinates":[100.325821,21.39699]}},{"type":"Feature","properties":{"name":"Myitsone","status":"Suspended","dam_type":"CFRD","function":"Hydropower","river":"Ayeyarwady","state":"Kachin","basin":"Ayeyarwady","capacity_mw":6000,"height_m":"140","year":null,"risk":"low","color":"#2e7d32","label":"Low Risk (>80 km)","distanceKm":"83.7"},"geometry":{"type":"Point","coordinates":[97.535,25.715]}},{"type":"Feature","properties":{"name":"Myittha","status":"Complete","dam_type":"Earth","function":"Multi-purpose","river":"Myittha","state":"Magway","basin":"Chindwin","capacity_mw":40,"height_m":"63","year":"2017","risk":"low","color":"#2e7d32","label":"Low Risk (>80 km)","distanceKm":"Infinity"},"geometry":{"type":"Point","coordinates":[94.036944,21.992222]}},{"type":"Feature","properties":{"name":"Myogyi","status":"Complete","dam_type":"","function":"Multi-purpose","river":"Zawgyi River","state":"Shan","basin":"Ayeyarwady","capacity_mw":30,"height_m":"79","year":"2015","risk":"medium","color":"#ed6c02","label":"Medium Risk (30–80 km)","distanceKm":"48.2"},"geometry":{"type":"Point","coordinates":[96.39144,21.46349]}},{"type":"Feature","properties":{"name":"Nam Hka","status":"Proposed","dam_type":"","function":"Hydropower","river":"Nam Hka","state":"Shan","basin":"Thanlwin","capacity_mw":210,"height_m":"120","year":"2025","risk":"low","color":"#2e7d32","label":"Low Risk (>80 km)","distanceKm":"Infinity"},"geometry":{"type":"Point","coordinates":[98.950044,21.733821]}},{"type":"Feature","properties":{"name":"Nam Hsim","status":"Proposed","dam_type":"","function":"Hydropower","river":"Myitnge Upper","state":"Shan","basin":"Ayeyarwady","capacity_mw":30,"height_m":null,"year":"2020","risk":"low","color":"#2e7d32","label":"Low Risk (>80 km)","distanceKm":"124.1"},"geometry":{"type":"Point","coordinates":[97.124079,22.560266]}},{"type":"Feature","properties":{"name":"Nam Lang","status":"Proposed","dam_type":"","function":"Hydropower","river":"Myitnge Upper","state":"Shan","basin":"Ayeyarwady","capacity_mw":210,"height_m":null,"year":"2020","risk":"low","color":"#2e7d32","label":"Low Risk (>80 km)","distanceKm":"137.0"},"geometry":{"type":"Point","coordinates":[97.248615,22.155565]}},{"type":"Feature","properties":{"name":"Nam Li","status":"Proposed","dam_type":"CG","function":"Hydropower","river":"N'Mai  Hka Tributary","state":"Kachin","basin":"Ayeyarwady","capacity_mw":165,"height_m":"44","year":"2020","risk":"low","color":"#2e7d32","label":"Low Risk (>80 km)","distanceKm":"Infinity"},"geometry":{"type":"Point","coordinates":[97.811427,25.369858]}},{"type":"Feature","properties":{"name":"Nam Lin","status":"Proposed","dam_type":"CG","function":"Hydropower","river":"Nam Lin","state":"Shan","basin":"Mekong","capacity_mw":36,"height_m":"26","year":"2021","risk":"low","color":"#2e7d32","label":"Low Risk (>80 km)","distanceKm":"Infinity"},"geometry":{"type":"Point","coordinates":[100.241026,20.742516]}},{"type":"Feature","properties":{"name":"Nam Paw","status":"Proposed","dam_type":"","function":"Hydropower","river":"Nam Paw Creek","state":"Shan","basin":"Ayeyarwady","capacity_mw":20,"height_m":"54","year":"2019","risk":"low","color":"#2e7d32","label":"Low Risk (>80 km)","distanceKm":"Infinity"},"geometry":{"type":"Point","coordinates":[97.911001,23.944341]}},{"type":"Feature","properties":{"name":"Nam Pawn (upper)","status":"Proposed","dam_type":"","function":"Hydropower","river":"Nam Pawn","state":"Shan","basin":"Thanlwin","capacity_mw":150,"height_m":"10","year":"2020","risk":"low","color":"#2e7d32","label":"Low Risk (>80 km)","distanceKm":"142.6"},"geometry":{"type":"Point","coordinates":[97.437368,20.062121]}},{"type":"Feature","properties":{"name":"Nam Tabak I","status":"Proposed","dam_type":"CG","function":"Hydropower","river":"Namtamhpak","state":"Kachin","basin":"Ayeyarwady","capacity_mw":141,"height_m":"56","year":"2027","risk":"low","color":"#2e7d32","label":"Low Risk (>80 km)","distanceKm":"Infinity"},"geometry":{"type":"Point","coordinates":[97.713906,25.090722]}},{"type":"Feature","properties":{"name":"Nam Tu","status":"Proposed","dam_type":"CG","function":"Hydropower","river":"Myitnge Upper","state":"Shan","basin":"Ayeyarwady","capacity_mw":100,"height_m":"114","year":"2021","risk":"low","color":"#2e7d32","label":"Low Risk (>80 km)","distanceKm":"144.2"},"geometry":{"type":"Point","coordinates":[97.319365,22.720943]}},{"type":"Feature","properties":{"name":"Nancho","status":"Complete","dam_type":"","function":"Hydropower","river":"Sin The Chaung","state":"Naypyitaw","basin":"Sittaung","capacity_mw":40,"height_m":"72","year":"2013","risk":"medium","color":"#ed6c02","label":"Medium Risk (30–80 km)","distanceKm":"33.4"},"geometry":{"type":"Point","coordinates":[96.450483,19.7412]}},{"type":"Feature","properties":{"name":"Naopha","status":"Proposed","dam_type":"RCC Gravity Dam","function":"Hydropower","river":"Thanlwin Mainstem","state":"Shan","basin":"Thanlwin","capacity_mw":1200,"height_m":"90","year":"2026","risk":"low","color":"#2e7d32","label":"Low Risk (>80 km)","distanceKm":"Infinity"},"geometry":{"type":"Point","coordinates":[98.499151,22.987464]}},{"type":"Feature","properties":{"name":"Paung Laung (lower)","status":"Complete","dam_type":"RCC","function":"Multi-purpose","river":"Paung Laung Chaung","state":"Naypyitaw","basin":"Sittaung","capacity_mw":280,"height_m":"131","year":"2005","risk":"high","color":"#d32f2f","label":"High Risk (0–30 km)","distanceKm":"23.4"},"geometry":{"type":"Point","coordinates":[96.335,19.785]}},{"type":"Feature","properties":{"name":"Paung Laung (middle)","status":"Proposed","dam_type":"RCC","function":"Hydropower","river":"Paung Laung Chaung","state":"Mandalay","basin":"Sittaung","capacity_mw":100,"height_m":"110","year":"2021","risk":"medium","color":"#ed6c02","label":"Medium Risk (30–80 km)","distanceKm":"43.1"},"geometry":{"type":"Point","coordinates":[96.508,19.86]}},{"type":"Feature","properties":{"name":"Paung Laung (upper)","status":"Complete","dam_type":"RCC","function":"Hydropower","river":"Paung Laung Chaung","state":"Mandalay","basin":"Sittaung","capacity_mw":140,"height_m":"98","year":"2015","risk":"medium","color":"#ed6c02","label":"Medium Risk (30–80 km)","distanceKm":"48.7"},"geometry":{"type":"Point","coordinates":[96.598,19.756]}},{"type":"Feature","properties":{"name":"Hpak Nam","status":"Proposed","dam_type":"","function":"Hydropower","river":"Nam Pawn","state":"Shan","basin":"Thanlwin","capacity_mw":105,"height_m":"20","year":"62","risk":"low","color":"#2e7d32","label":"Low Risk (>80 km)","distanceKm":"149.2"},"geometry":{"type":"Point","coordinates":[97.456152,20.209251]}},{"type":"Feature","properties":{"name":"Hpi Hseng","status":"Proposed","dam_type":"","function":"Hydropower","river":"Nam Pawn","state":"Shan","basin":"Thanlwin","capacity_mw":45,"height_m":"10","year":"2020","risk":"low","color":"#2e7d32","label":"Low Risk (>80 km)","distanceKm":"144.1"},"geometry":{"type":"Point","coordinates":[97.43497,20.118443]}},{"type":"Feature","properties":{"name":"Phyu Chaung","status":"Complete","dam_type":"Rockfill","function":"Multi-purpose","river":"Pyu Chaung","state":"Bago","basin":"Sittaung","capacity_mw":40,"height_m":"75","year":"2015","risk":"high","color":"#d32f2f","label":"High Risk (0–30 km)","distanceKm":"1.3"},"geometry":{"type":"Point","coordinates":[96.351028,18.506214]}},{"type":"Feature","properties":{"name":"Renan","status":"Proposed","dam_type":"CFRD","function":"Hydropower","river":"N'Mai  Hka","state":"Kachin","basin":"Ayeyarwady","capacity_mw":1200,"height_m":"159","year":"2030","risk":"low","color":"#2e7d32","label":"Low Risk (>80 km)","distanceKm":"Infinity"},"geometry":{"type":"Point","coordinates":[98.090192,27.525941]}},{"type":"Feature","properties":{"name":"Sedawgyi","status":"Complete","dam_type":"Rockfill","function":"Multi-purpose","river":"Ma Gyi Chaung","state":"Mandalay","basin":"Ayeyarwady","capacity_mw":25,"height_m":"41","year":"1989","risk":"medium","color":"#ed6c02","label":"Medium Risk (30–80 km)","distanceKm":"42.0"},"geometry":{"type":"Point","coordinates":[96.326937,22.348646]}},{"type":"Feature","properties":{"name":"Sedawgyi (upper)","status":"Proposed","dam_type":"","function":"Multi-purpose","river":"Ma Gyi Chaung","state":"Shan","basin":"Ayeyarwady","capacity_mw":64,"height_m":"73","year":null,"risk":"medium","color":"#ed6c02","label":"Medium Risk (30–80 km)","distanceKm":"30.1"},"geometry":{"type":"Point","coordinates":[96.20626,22.74764]}},{"type":"Feature","properties":{"name":"Shwegyin","status":"Complete","dam_type":"Rockfill","function":"Hydropower","river":"Shwegyin River","state":"Bago","basin":"Sittaung","capacity_mw":75,"height_m":"57","year":"2011","risk":"medium","color":"#ed6c02","label":"Medium Risk (30–80 km)","distanceKm":"54.1"},"geometry":{"type":"Point","coordinates":[96.935001,17.970227]}},{"type":"Feature","properties":{"name":"Shweli 1","status":"Complete","dam_type":"CG","function":"Hydropower","river":"Shweli","state":"Shan","basin":"Ayeyarwady","capacity_mw":600,"height_m":"47","year":"2009","risk":"low","color":"#2e7d32","label":"Low Risk (>80 km)","distanceKm":"154.9"},"geometry":{"type":"Point","coordinates":[97.506,23.698]}},{"type":"Feature","properties":{"name":"Shweli 2","status":"Proposed","dam_type":"CFRD","function":"Hydropower","river":"Shweli","state":"Shan","basin":"Ayeyarwady","capacity_mw":520,"height_m":"92","year":"2021","risk":"low","color":"#2e7d32","label":"Low Risk (>80 km)","distanceKm":"136.6"},"geometry":{"type":"Point","coordinates":[97.31235,23.6531]}},{"type":"Feature","properties":{"name":"Shweli 3","status":"Under Construction","dam_type":"RCC","function":"Hydropower","river":"Shweli","state":"Shan","basin":"Ayeyarwady","capacity_mw":1050,"height_m":"122","year":"2020","risk":"low","color":"#2e7d32","label":"Low Risk (>80 km)","distanceKm":"85.1"},"geometry":{"type":"Point","coordinates":[96.769,23.315]}},{"type":"Feature","properties":{"name":"Suo Lwe","status":"Proposed","dam_type":"","function":"Hydropower","river":"Nam Lwe","state":"Shan","basin":"Mekong","capacity_mw":240,"height_m":"-","year":"2025","risk":"low","color":"#2e7d32","label":"Low Risk (>80 km)","distanceKm":"Infinity"},"geometry":{"type":"Point","coordinates":[100.176054,21.359543]}},{"type":"Feature","properties":{"name":"Taninthayi","status":"Proposed","dam_type":"","function":"Hydropower","river":"Taninthayi","state":"Tanintharyi","basin":"Tanintharyi","capacity_mw":600,"height_m":"-","year":null,"risk":"low","color":"#2e7d32","label":"Low Risk (>80 km)","distanceKm":"Infinity"},"geometry":{"type":"Point","coordinates":[98.94,12.777]}},{"type":"Feature","properties":{"name":"Thahtay","status":"Under Construction","dam_type":"Zone type/Rockfill","function":"Hydropower","river":"Thahtay","state":"Rakhine","basin":"Rakhine","capacity_mw":111,"height_m":"91","year":"2020","risk":"low","color":"#2e7d32","label":"Low Risk (>80 km)","distanceKm":"Infinity"},"geometry":{"type":"Point","coordinates":[94.381,18.64]}},{"type":"Feature","properties":{"name":"Thapanzeik","status":"Complete","dam_type":"Earth","function":"Multi-purpose","river":"Mu River","state":"Sagaing","basin":"Ayeyarwady","capacity_mw":30,"height_m":"33","year":"2002","risk":"low","color":"#2e7d32","label":"Low Risk (>80 km)","distanceKm":"Infinity"},"geometry":{"type":"Point","coordinates":[95.35833,23.305918]}},{"type":"Feature","properties":{"name":"Thauk Ye Khat 2","status":"Complete","dam_type":"Earth","function":"Hydropower","river":"Thauk Ye Khat","state":"Kayin","basin":"Sittaung","capacity_mw":120,"height_m":"94","year":"2014","risk":"medium","color":"#ed6c02","label":"Medium Risk (30–80 km)","distanceKm":"32.5"},"geometry":{"type":"Point","coordinates":[96.619907,18.914102]}},{"type":"Feature","properties":{"name":"Tongxinqiao","status":"Proposed","dam_type":"CG","function":"Hydropower","river":"Naw Chang  Hka","state":"Kachin","basin":"Ayeyarwady","capacity_mw":340,"height_m":"63","year":"2026","risk":"low","color":"#2e7d32","label":"Low Risk (>80 km)","distanceKm":"Infinity"},"geometry":{"type":"Point","coordinates":[98.360249,25.963646]}},{"type":"Feature","properties":{"name":"Wutsok","status":"Proposed","dam_type":"CFRD","function":"Hydropower","river":"N'Mai  Hka","state":"Kachin","basin":"Ayeyarwady","capacity_mw":1800,"height_m":"165","year":"2030","risk":"low","color":"#2e7d32","label":"Low Risk (>80 km)","distanceKm":"Infinity"},"geometry":{"type":"Point","coordinates":[98.292511,26.403585]}},{"type":"Feature","properties":{"name":"Yenwe","status":"Complete","dam_type":"Earth","function":"Multi-purpose","river":"Ye Nwe Chaung","state":"Bago","basin":"Sittaung","capacity_mw":25,"height_m":"77","year":"2007","risk":"high","color":"#d32f2f","label":"High Risk (0–30 km)","distanceKm":"3.9"},"geometry":{"type":"Point","coordinates":[96.446152,18.085211]}},{"type":"Feature","properties":{"name":"Yeywa","status":"Complete","dam_type":"RCC","function":"Hydropower","river":"Lower Myitnge","state":"Mandalay","basin":"Ayeyarwady","capacity_mw":790,"height_m":"132","year":"2010","risk":"medium","color":"#ed6c02","label":"Medium Risk (30–80 km)","distanceKm":"57.4"},"geometry":{"type":"Point","coordinates":[96.474077,21.675196]}},{"type":"Feature","properties":{"name":"Yeywa (middle)","status":"Proposed","dam_type":"RCC/Arch dam","function":"Hydropower","river":"Lower Myitnge","state":"Shan","basin":"Ayeyarwady","capacity_mw":700,"height_m":"160","year":"2020","risk":"low","color":"#2e7d32","label":"Low Risk (>80 km)","distanceKm":"98.5"},"geometry":{"type":"Point","coordinates":[96.87313,21.96024]}},{"type":"Feature","properties":{"name":"Yeywa (upper)","status":"Under Construction","dam_type":"RCC","function":"Hydropower","river":"Lower Myitnge","state":"Shan","basin":"Ayeyarwady","capacity_mw":280,"height_m":"97","year":"2019","risk":"low","color":"#2e7d32","label":"Low Risk (>80 km)","distanceKm":"116.1"},"geometry":{"type":"Point","coordinates":[97.046741,22.254093]}},{"type":"Feature","properties":{"name":"Ywathit","status":"Proposed","dam_type":"RCC Gravity Dam","function":"Hydropower","river":"Thanlwin Mainstem","state":"Kayah","basin":"Thanlwin","capacity_mw":4000,"height_m":"167","year":"2030","risk":"low","color":"#2e7d32","label":"Low Risk (>80 km)","distanceKm":"129.8"},"geometry":{"type":"Point","coordinates":[97.521257,19.131059]}},{"type":"Feature","properties":{"name":"Zaungtu","status":"Complete","dam_type":"Embankment","function":"Hydropower","river":"Bago River","state":"Bago","basin":"Myit Mo Hka & Bago","capacity_mw":20,"height_m":"45","year":"2000","risk":"high","color":"#d32f2f","label":"High Risk (0–30 km)","distanceKm":"25.4"},"geometry":{"type":"Point","coordinates":[96.19898,17.755818]}},{"type":"Feature","properties":{"name":"Zawgyi I","status":"Complete","dam_type":"","function":"Hydropower","river":"Zawgyi River","state":"Shan","basin":"Ayeyarwady","capacity_mw":18,"height_m":"-","year":"1995","risk":"low","color":"#2e7d32","label":"Low Risk (>80 km)","distanceKm":"100.8"},"geometry":{"type":"Point","coordinates":[96.90147,21.3833]}},{"type":"Feature","properties":{"name":"Zawgyi II","status":"Complete","dam_type":"Earth","function":"Multi-purpose","river":"Zawgyi River","state":"Shan","basin":"Ayeyarwady","capacity_mw":12,"height_m":"44","year":"2011","risk":"low","color":"#2e7d32","label":"Low Risk (>80 km)","distanceKm":"98.3"},"geometry":{"type":"Point","coordinates":[96.8726,21.5648]}},{"type":"Feature","properties":{"name":"Mali","status":"Complete","dam_type":"","function":"Hydropower","river":"Mali Creek","state":"Kachin","basin":"Ayeyarwady","capacity_mw":11,"height_m":null,"year":"2006","risk":"low","color":"#2e7d32","label":"Low Risk (>80 km)","distanceKm":"125.5"},"geometry":{"type":"Point","coordinates":[97.6135,24.98458]}},{"type":"Feature","properties":{"name":"Nam Tabak II","status":"Proposed","dam_type":"CG","function":"Hydropower","river":"Namtamhpak","state":"Kachin","basin":"Ayeyarwady","capacity_mw":144,"height_m":"27","year":"2027","risk":"low","color":"#2e7d32","label":"Low Risk (>80 km)","distanceKm":"122.2"},"geometry":{"type":"Point","coordinates":[97.650627,25.119755]}},{"type":"Feature","properties":{"name":"Mong Hsat","status":"Proposed","dam_type":"","function":"Hydropower","river":"Nam Hkoke","state":"Shan","basin":"Mekong","capacity_mw":30,"height_m":null,"year":null,"risk":"low","color":"#2e7d32","label":"Low Risk (>80 km)","distanceKm":"Infinity"},"geometry":{"type":"Point","coordinates":[99.375,20.662222]}},{"type":"Feature","properties":{"name":"Tawog Hka","status":"Identified Sites","dam_type":"","function":"","river":"Nam Lanog Hka","state":"Kachin","basin":"Chindwin","capacity_mw":null,"height_m":null,"year":null,"risk":"medium","color":"#ed6c02","label":"Medium Risk (30–80 km)","distanceKm":"35.1"},"geometry":{"type":"Point","coordinates":[96.52987,26.309687]}},{"type":"Feature","properties":{"name":"Ta Rung Hka","status":"Identified Sites","dam_type":"","function":"","river":"Ta Rung Hka","state":"Kachin","basin":"Chindwin","capacity_mw":null,"height_m":null,"year":null,"risk":"medium","color":"#ed6c02","label":"Medium Risk (30–80 km)","distanceKm":"57.5"},"geometry":{"type":"Point","coordinates":[96.46829,26.718029]}},{"type":"Feature","properties":{"name":"Ta Nai Hka","status":"Identified Sites","dam_type":"","function":"","river":"Ta Nai Hka","state":"Kachin","basin":"Chindwin","capacity_mw":null,"height_m":null,"year":null,"risk":"high","color":"#d32f2f","label":"High Risk (0–30 km)","distanceKm":"3.9"},"geometry":{"type":"Point","coordinates":[96.95008,26.294175]}},{"type":"Feature","properties":{"name":"Thauk Ye Khat 1","status":"Identified Sites","dam_type":"","function":"","river":"Thauk Ye Khat","state":"Kayin","basin":"Sittaung","capacity_mw":null,"height_m":null,"year":null,"risk":"medium","color":"#ed6c02","label":"Medium Risk (30–80 km)","distanceKm":"43.3"},"geometry":{"type":"Point","coordinates":[96.719624,18.938587]}},{"type":"Feature","properties":{"name":"Yunzalin","status":"Identified Sites","dam_type":"","function":"","river":"","state":"Kayin","basin":"Thanlwin","capacity_mw":null,"height_m":null,"year":null,"risk":"low","color":"#2e7d32","label":"Low Risk (>80 km)","distanceKm":"100.2"},"geometry":{"type":"Point","coordinates":[97.34081,18.29496]}},{"type":"Feature","properties":{"name":"Lam Pha","status":"Identified Sites","dam_type":"","function":"","river":"Lam Pha","state":"Kayin","basin":"Thanlwin","capacity_mw":null,"height_m":null,"year":null,"risk":"low","color":"#2e7d32","label":"Low Risk (>80 km)","distanceKm":"207.9"},"geometry":{"type":"Point","coordinates":[98.348758,16.305021]}},{"type":"Feature","properties":{"name":"Mi Chaung","status":"Identified Sites","dam_type":"","function":"","river":"Mi Chaung","state":"Chin","basin":"Rakhine","capacity_mw":null,"height_m":null,"year":null,"risk":"low","color":"#2e7d32","label":"Low Risk (>80 km)","distanceKm":"Infinity"},"geometry":{"type":"Point","coordinates":[93.073495,21.334187]}},{"type":"Feature","properties":{"name":"U Yu Chaung","status":"Identified Sites","dam_type":"","function":"","river":"Uyu","state":"Sagaing","basin":"Chindwin","capacity_mw":null,"height_m":null,"year":null,"risk":"low","color":"#2e7d32","label":"Low Risk (>80 km)","distanceKm":"Infinity"},"geometry":{"type":"Point","coordinates":[95.294431,24.865948]}},{"type":"Feature","properties":{"name":"Thein Kun Chaung","status":"Identified Sites","dam_type":"","function":"","river":"Thein Kun","state":"Tanintharyi","basin":"Tanintharyi","capacity_mw":null,"height_m":null,"year":null,"risk":"low","color":"#2e7d32","label":"Low Risk (>80 km)","distanceKm":"Infinity"},"geometry":{"type":"Point","coordinates":[99.331205,11.769949]}},{"type":"Feature","properties":{"name":"Tha Gyet Chaung","status":"Identified Sites","dam_type":"","function":"","river":"Tha Gyet","state":"Tanintharyi","basin":"Tanintharyi","capacity_mw":null,"height_m":null,"year":null,"risk":"low","color":"#2e7d32","label":"Low Risk (>80 km)","distanceKm":"Infinity"},"geometry":{"type":"Point","coordinates":[99.227161,12.132896]}},{"type":"Feature","properties":{"name":"Glohong Kra","status":"Identified Sites","dam_type":"","function":"","river":"Glohong Kra","state":"Tanintharyi","basin":"Tanintharyi","capacity_mw":null,"height_m":null,"year":null,"risk":"low","color":"#2e7d32","label":"Low Risk (>80 km)","distanceKm":"Infinity"},"geometry":{"type":"Point","coordinates":[98.858324,10.775209]}},{"type":"Feature","properties":{"name":"Myet Taw Chaung","status":"Identified Sites","dam_type":"","function":"","river":"Myet Taw Chaung","state":"Kayin","basin":"Thanlwin","capacity_mw":null,"height_m":null,"year":null,"risk":"low","color":"#2e7d32","label":"Low Risk (>80 km)","distanceKm":"139.4"},"geometry":{"type":"Point","coordinates":[97.915769,15.682011]}},{"type":"Feature","properties":{"name":"Mindon","status":"Identified Sites","dam_type":"","function":"","river":"","state":"Magway","basin":"Ayeyarwady","capacity_mw":null,"height_m":null,"year":null,"risk":"low","color":"#2e7d32","label":"Low Risk (>80 km)","distanceKm":"Infinity"},"geometry":{"type":"Point","coordinates":[94.712866,19.37089]}},{"type":"Feature","properties":{"name":"Than Dwe","status":"Identified Sites","dam_type":"","function":"","river":"Than Dwe","state":"Rakhine","basin":"Rakhine","capacity_mw":null,"height_m":null,"year":null,"risk":"low","color":"#2e7d32","label":"Low Risk (>80 km)","distanceKm":"Infinity"},"geometry":{"type":"Point","coordinates":[94.493902,18.386144]}},{"type":"Feature","properties":{"name":"Kyein Ta Li","status":"Identified Sites","dam_type":"","function":"","river":"Kyein Ta Li","state":"Rakhine","basin":"Rakhine","capacity_mw":null,"height_m":null,"year":null,"risk":"low","color":"#2e7d32","label":"Low Risk (>80 km)","distanceKm":"Infinity"},"geometry":{"type":"Point","coordinates":[94.576508,17.950012]}},{"type":"Feature","properties":{"name":"Nam Hkok","status":"Identified Sites","dam_type":"","function":"","river":"Nam Hkoke","state":"Shan","basin":"Mekong","capacity_mw":null,"height_m":null,"year":null,"risk":"low","color":"#2e7d32","label":"Low Risk (>80 km)","distanceKm":"Infinity"},"geometry":{"type":"Point","coordinates":[99.34667,20.196337]}},{"type":"Feature","properties":{"name":"Saing Din","status":"Identified Sites","dam_type":"","function":"","river":"","state":"Rakhine","basin":"Rakhine","capacity_mw":77,"height_m":null,"year":null,"risk":"low","color":"#2e7d32","label":"Low Risk (>80 km)","distanceKm":"Infinity"},"geometry":{"type":"Point","coordinates":[92.652188,20.893779]}},{"type":"Feature","properties":{"name":"Sar Ra Wa Chaung","status":"Identified Sites","dam_type":"","function":"","river":"","state":"Tanintharyi","basin":"Tanintharyi","capacity_mw":null,"height_m":null,"year":null,"risk":"low","color":"#2e7d32","label":"Low Risk (>80 km)","distanceKm":"Infinity"},"geometry":{"type":"Point","coordinates":[98.98167,12.829406]}},{"type":"Feature","properties":{"name":"Bawbin","status":"Complete","dam_type":"","function":"Irrigation","river":"Bawbin","state":"","basin":"","capacity_mw":null,"height_m":null,"year":"2002","risk":"medium","color":"#ed6c02","label":"Medium Risk (30–80 km)","distanceKm":"61.2"},"geometry":{"type":"Point","coordinates":[95.796146,18.362836]}},{"type":"Feature","properties":{"name":"Bewt Gyi","status":"Complete","dam_type":"","function":"Irrigation","river":"","state":"","basin":"","capacity_mw":null,"height_m":null,"year":null,"risk":"low","color":"#2e7d32","label":"Low Risk (>80 km)","distanceKm":"Infinity"},"geometry":{"type":"Point","coordinates":[95.528459,19.313794]}},{"type":"Feature","properties":{"name":"Gyobyu","status":"Complete","dam_type":"","function":"Water Supply","river":"Gyobyu Chaung","state":"","basin":"","capacity_mw":null,"height_m":null,"year":"1940","risk":"medium","color":"#ed6c02","label":"Medium Risk (30–80 km)","distanceKm":"45.7"},"geometry":{"type":"Point","coordinates":[96.035673,17.376582]}},{"type":"Feature","properties":{"name":"Hlaing Chaung","status":"Complete","dam_type":"","function":"Irrigation","river":"","state":"","basin":"","capacity_mw":null,"height_m":null,"year":"2006","risk":"low","color":"#2e7d32","label":"Low Risk (>80 km)","distanceKm":"Infinity"},"geometry":{"type":"Point","coordinates":[94.580082,21.999294]}},{"type":"Feature","properties":{"name":"Hlaw Ga","status":"Complete","dam_type":"","function":"Water Supply","river":"","state":"","basin":"","capacity_mw":null,"height_m":null,"year":null,"risk":"medium","color":"#ed6c02","label":"Medium Risk (30–80 km)","distanceKm":"38.0"},"geometry":{"type":"Point","coordinates":[96.11125,16.97279]}},{"type":"Feature","properties":{"name":"Htanzaloke","status":"Complete","dam_type":"","function":"Irrigation","river":"Htanzaloke","state":"","basin":"","capacity_mw":null,"height_m":null,"year":"1996","risk":"low","color":"#2e7d32","label":"Low Risk (>80 km)","distanceKm":"Infinity"},"geometry":{"type":"Point","coordinates":[95.257973,22.159941]}},{"type":"Feature","properties":{"name":"Inya","status":"Complete","dam_type":"","function":"Water Supply","river":"","state":"","basin":"","capacity_mw":null,"height_m":null,"year":"1883","risk":"medium","color":"#ed6c02","label":"Medium Risk (30–80 km)","distanceKm":"35.5"},"geometry":{"type":"Point","coordinates":[96.135034,16.838848]}},{"type":"Feature","properties":{"name":"Kanggyigone","status":"Complete","dam_type":"","function":"Irrigation","river":"In Yone","state":"","basin":"","capacity_mw":null,"height_m":null,"year":"2000","risk":"low","color":"#2e7d32","label":"Low Risk (>80 km)","distanceKm":"Infinity"},"geometry":{"type":"Point","coordinates":[95.308665,19.043285]}},{"type":"Feature","properties":{"name":"Kantin-BeeLin","status":"Complete","dam_type":"","function":"Irrigation","river":"Kantin-BeeLin","state":"","basin":"","capacity_mw":null,"height_m":null,"year":"2002","risk":"medium","color":"#ed6c02","label":"Medium Risk (30–80 km)","distanceKm":"56.3"},"geometry":{"type":"Point","coordinates":[95.887794,17.9571]}},{"type":"Feature","properties":{"name":"Kanyin","status":"Complete","dam_type":"","function":"Irrigation","river":"Kanyin","state":"","basin":"","capacity_mw":null,"height_m":null,"year":"2012","risk":"low","color":"#2e7d32","label":"Low Risk (>80 km)","distanceKm":"Infinity"},"geometry":{"type":"Point","coordinates":[95.072583,17.991848]}},{"type":"Feature","properties":{"name":"Kaukkwe","status":"Complete","dam_type":"","function":"Irrigation","river":"Kaukkwe","state":"","basin":"","capacity_mw":null,"height_m":null,"year":"2006","risk":"low","color":"#2e7d32","label":"Low Risk (>80 km)","distanceKm":"Infinity"},"geometry":{"type":"Point","coordinates":[97.798928,22.933678]}},{"type":"Feature","properties":{"name":"Khawar","status":"Complete","dam_type":"","function":"Irrigation","river":"Khawar","state":"","basin":"","capacity_mw":null,"height_m":null,"year":"2004","risk":"low","color":"#2e7d32","label":"Low Risk (>80 km)","distanceKm":"Infinity"},"geometry":{"type":"Point","coordinates":[95.011249,18.450999]}},{"type":"Feature","properties":{"name":"Kinmundaung","status":"Complete","dam_type":"","function":"Irrigation","river":"Kinmundaung","state":"","basin":"","capacity_mw":null,"height_m":null,"year":"1990","risk":"low","color":"#2e7d32","label":"Low Risk (>80 km)","distanceKm":"Infinity"},"geometry":{"type":"Point","coordinates":[95.693168,19.908676]}},{"type":"Feature","properties":{"name":"Kintat","status":"Complete","dam_type":"","function":"Irrigation","river":"Mu","state":"","basin":"","capacity_mw":null,"height_m":null,"year":"1997","risk":"low","color":"#2e7d32","label":"Low Risk (>80 km)","distanceKm":"Infinity"},"geometry":{"type":"Point","coordinates":[95.708602,22.666332]}},{"type":"Feature","properties":{"name":"Kyauktalone (1)","status":"Complete","dam_type":"","function":"Irrigation","river":"Kyauktalone","state":"","basin":"","capacity_mw":null,"height_m":null,"year":"1993","risk":"low","color":"#2e7d32","label":"Low Risk (>80 km)","distanceKm":"Infinity"},"geometry":{"type":"Point","coordinates":[95.458244,21.107401]}},{"type":"Feature","properties":{"name":"Kyauktalone (2) - Modulating Dam","status":"Complete","dam_type":"","function":"Irrigation","river":"Kyauktalone","state":"","basin":"","capacity_mw":null,"height_m":null,"year":"2001","risk":"low","color":"#2e7d32","label":"Low Risk (>80 km)","distanceKm":"Infinity"},"geometry":{"type":"Point","coordinates":[95.469553,21.076999]}},{"type":"Feature","properties":{"name":"Kyee Ni","status":"Complete","dam_type":"","function":"Irrigation","river":"","state":"","basin":"","capacity_mw":null,"height_m":null,"year":null,"risk":"high","color":"#d32f2f","label":"High Risk (0–30 km)","distanceKm":"19.4"},"geometry":{"type":"Point","coordinates":[96.169943,20.425297]}},{"type":"Feature","properties":{"name":"Kyeebin-et","status":"Complete","dam_type":"","function":"Irrigation","river":"Indaw Pauk","state":"","basin":"","capacity_mw":null,"height_m":null,"year":"2001","risk":"low","color":"#2e7d32","label":"Low Risk (>80 km)","distanceKm":"Infinity"},"geometry":{"type":"Point","coordinates":[95.664076,23.08728]}},{"type":"Feature","properties":{"name":"Kyeeon Kyeewa","status":"Complete","dam_type":"","function":"Hydropower","river":"Mone","state":"","basin":"","capacity_mw":null,"height_m":null,"year":"2012","risk":"low","color":"#2e7d32","label":"Low Risk (>80 km)","distanceKm":"Infinity"},"geometry":{"type":"Point","coordinates":[94.417348,20.331771]}},{"type":"Feature","properties":{"name":"Kyin-tha","status":"Complete","dam_type":"","function":"Irrigation","river":"","state":"","basin":"","capacity_mw":null,"height_m":null,"year":"2003","risk":"low","color":"#2e7d32","label":"Low Risk (>80 km)","distanceKm":"Infinity"},"geometry":{"type":"Point","coordinates":[95.65751,21.054113]}},{"type":"Feature","properties":{"name":"Laiza","status":"Planned","dam_type":"","function":"Hydropower","river":"Malikha","state":"","basin":"","capacity_mw":null,"height_m":null,"year":"2021","risk":"low","color":"#2e7d32","label":"Low Risk (>80 km)","distanceKm":"Infinity"},"geometry":{"type":"Point","coordinates":[97.746971,26.1973]}},{"type":"Feature","properties":{"name":"Lakin","status":"Planned","dam_type":"","function":"Hydropower","river":"May Hka","state":"","basin":"","capacity_mw":null,"height_m":null,"year":"2026","risk":"low","color":"#2e7d32","label":"Low Risk (>80 km)","distanceKm":"Infinity"},"geometry":{"type":"Point","coordinates":[98.406111,26.595833]}},{"type":"Feature","properties":{"name":"Ledaingzin","status":"Complete","dam_type":"","function":"Irrigation","river":"Paung Kwe","state":"","basin":"","capacity_mw":null,"height_m":null,"year":"2001","risk":"low","color":"#2e7d32","label":"Low Risk (>80 km)","distanceKm":"Infinity"},"geometry":{"type":"Point","coordinates":[95.15673,20.445332]}},{"type":"Feature","properties":{"name":"Letpan","status":"Complete","dam_type":"","function":"Irrigation","river":"Htan Pin Su","state":"","basin":"","capacity_mw":null,"height_m":null,"year":"2003","risk":"low","color":"#2e7d32","label":"Low Risk (>80 km)","distanceKm":"Infinity"},"geometry":{"type":"Point","coordinates":[95.400088,22.053801]}},{"type":"Feature","properties":{"name":"Linban","status":"Complete","dam_type":"","function":"Irrigation","river":"","state":"","basin":"","capacity_mw":null,"height_m":null,"year":"2009","risk":"low","color":"#2e7d32","label":"Low Risk (>80 km)","distanceKm":"Infinity"},"geometry":{"type":"Point","coordinates":[95.525593,23.14541]}},{"type":"Feature","properties":{"name":"Ma Mya","status":"Complete","dam_type":"","function":"Irrigation","river":"Ma Mya","state":"","basin":"","capacity_mw":null,"height_m":null,"year":"2007","risk":"low","color":"#2e7d32","label":"Low Risk (>80 km)","distanceKm":"Infinity"},"geometry":{"type":"Point","coordinates":[95.081046,18.106536]}},{"type":"Feature","properties":{"name":"Maday","status":"Complete","dam_type":"","function":"Irrigation","river":"Maday","state":"","basin":"","capacity_mw":null,"height_m":null,"year":"2007","risk":"low","color":"#2e7d32","label":"Low Risk (>80 km)","distanceKm":"Infinity"},"geometry":{"type":"Point","coordinates":[94.868121,19.033781]}},{"type":"Feature","properties":{"name":"Male-Nattaung","status":"Complete","dam_type":"","function":"Irrigation","river":"Male-Nattaung","state":"","basin":"","capacity_mw":null,"height_m":null,"year":"2007","risk":"high","color":"#d32f2f","label":"High Risk (0–30 km)","distanceKm":"18.7"},"geometry":{"type":"Point","coordinates":[96.096806,22.593002]}},{"type":"Feature","properties":{"name":"Manchaung (Mann)","status":"Complete","dam_type":"","function":"Irrigation","river":"Mann Creek","state":"","basin":"","capacity_mw":null,"height_m":null,"year":null,"risk":"low","color":"#2e7d32","label":"Low Risk (>80 km)","distanceKm":"Infinity"},"geometry":{"type":"Point","coordinates":[94.423262,20.096772]}},{"type":"Feature","properties":{"name":"Meikhtila","status":"Complete","dam_type":"","function":"Irrigation","river":"","state":"","basin":"","capacity_mw":null,"height_m":null,"year":null,"risk":"high","color":"#d32f2f","label":"High Risk (0–30 km)","distanceKm":"8.3"},"geometry":{"type":"Point","coordinates":[95.865057,20.875818]}},{"type":"Feature","properties":{"name":"Mēntóu xī","status":"Complete","dam_type":"","function":"Hydropower","river":"Měng nǎi hé","state":"","basin":"","capacity_mw":null,"height_m":null,"year":null,"risk":"low","color":"#2e7d32","label":"Low Risk (>80 km)","distanceKm":"Infinity"},"geometry":{"type":"Point","coordinates":[97.768566,24.835331]}},{"type":"Feature","properties":{"name":"Middle Yeywa","status":"Planned","dam_type":"","function":"Hydropower","river":"Myitnge","state":"","basin":"","capacity_mw":null,"height_m":null,"year":null,"risk":"low","color":"#2e7d32","label":"Low Risk (>80 km)","distanceKm":"104.4"},"geometry":{"type":"Point","coordinates":[96.930558,21.938771]}},{"type":"Feature","properties":{"name":"Min Hla","status":"Complete","dam_type":"","function":"Irrigation","river":"Min Hla","state":"","basin":"","capacity_mw":null,"height_m":null,"year":"2003","risk":"medium","color":"#ed6c02","label":"Medium Risk (30–80 km)","distanceKm":"52.1"},"geometry":{"type":"Point","coordinates":[95.909904,18.117447]}},{"type":"Feature","properties":{"name":"Mone","status":"Complete","dam_type":"","function":"Hydropower","river":"Mone","state":"","basin":"","capacity_mw":null,"height_m":null,"year":"2004","risk":"low","color":"#2e7d32","label":"Low Risk (>80 km)","distanceKm":"Infinity"},"geometry":{"type":"Point","coordinates":[94.259852,20.478481]}},{"type":"Feature","properties":{"name":"Mone Yin","status":"Complete","dam_type":"","function":"Irrigation","river":"Nam Swam","state":"","basin":"","capacity_mw":null,"height_m":null,"year":"2008","risk":"low","color":"#2e7d32","label":"Low Risk (>80 km)","distanceKm":"169.0"},"geometry":{"type":"Point","coordinates":[97.577462,23.145283]}},{"type":"Feature","properties":{"name":"Myaing Chaung","status":"Complete","dam_type":"","function":"Irrigation","river":"Myaing Chaung","state":"","basin":"","capacity_mw":null,"height_m":null,"year":"1992","risk":"low","color":"#2e7d32","label":"Low Risk (>80 km)","distanceKm":"Infinity"},"geometry":{"type":"Point","coordinates":[94.816231,21.615887]}},{"type":"Feature","properties":{"name":"Myotha","status":"Complete","dam_type":"","function":"Irrigation","river":"Ku Htaw","state":"","basin":"","capacity_mw":null,"height_m":null,"year":null,"risk":"high","color":"#d32f2f","label":"High Risk (0–30 km)","distanceKm":"20.6"},"geometry":{"type":"Point","coordinates":[95.719008,21.672793]}},{"type":"Feature","properties":{"name":"Myothit","status":"Complete","dam_type":"","function":"Irrigation","river":"Myothit","state":"","basin":"","capacity_mw":null,"height_m":null,"year":"2004","risk":"low","color":"#2e7d32","label":"Low Risk (>80 km)","distanceKm":"Infinity"},"geometry":{"type":"Point","coordinates":[95.214678,22.41452]}},{"type":"Feature","properties":{"name":"Nagar","status":"Complete","dam_type":"","function":"Irrigation","river":"Nagar","state":"","basin":"","capacity_mw":null,"height_m":null,"year":null,"risk":"low","color":"#2e7d32","label":"Low Risk (>80 km)","distanceKm":"Infinity"},"geometry":{"type":"Point","coordinates":[95.16702,20.395229]}},{"type":"Feature","properties":{"name":"Namtu","status":"Planned","dam_type":"","function":"Hydropower","river":"","state":"","basin":"","capacity_mw":null,"height_m":null,"year":null,"risk":"low","color":"#2e7d32","label":"Low Risk (>80 km)","distanceKm":"143.0"},"geometry":{"type":"Point","coordinates":[97.307334,22.857605]}},{"type":"Feature","properties":{"name":"Nankathu","status":"Complete","dam_type":"","function":"Irrigation","river":"Nankathu","state":"","basin":"","capacity_mw":null,"height_m":null,"year":"2000","risk":"low","color":"#2e7d32","label":"Low Risk (>80 km)","distanceKm":"Infinity"},"geometry":{"type":"Point","coordinates":[95.036264,17.850106]}},{"type":"Feature","properties":{"name":"Nat Thar Taw","status":"Complete","dam_type":"","function":"Irrigation","river":"Nat Thar Taw","state":"","basin":"","capacity_mw":null,"height_m":null,"year":"2003","risk":"high","color":"#d32f2f","label":"High Risk (0–30 km)","distanceKm":"20.2"},"geometry":{"type":"Point","coordinates":[95.722506,21.800573]}},{"type":"Feature","properties":{"name":"Natkar","status":"Complete","dam_type":"","function":"Irrigation","river":"","state":"","basin":"","capacity_mw":null,"height_m":null,"year":"2013","risk":"high","color":"#d32f2f","label":"High Risk (0–30 km)","distanceKm":"7.9"},"geometry":{"type":"Point","coordinates":[95.884964,20.684856]}},{"type":"Feature","properties":{"name":"Natmouk","status":"Complete","dam_type":"","function":"Irrigation","river":"","state":"","basin":"","capacity_mw":null,"height_m":null,"year":null,"risk":"low","color":"#2e7d32","label":"Low Risk (>80 km)","distanceKm":"Infinity"},"geometry":{"type":"Point","coordinates":[95.48095,20.409266]}},{"type":"Feature","properties":{"name":"Nga Moe Yeik","status":"Complete","dam_type":"","function":"Water Supply","river":"","state":"","basin":"","capacity_mw":null,"height_m":null,"year":"1995","risk":"medium","color":"#ed6c02","label":"Medium Risk (30–80 km)","distanceKm":"32.5"},"geometry":{"type":"Point","coordinates":[96.160508,17.355585]}},{"type":"Feature","properties":{"name":"Ngathayauk","status":"Complete","dam_type":"","function":"Irrigation","river":"Chaung Ma Gyi","state":"","basin":"","capacity_mw":null,"height_m":null,"year":"2006","risk":"low","color":"#2e7d32","label":"Low Risk (>80 km)","distanceKm":"Infinity"},"geometry":{"type":"Point","coordinates":[95.107695,21.168644]}},{"type":"Feature","properties":{"name":"Ngwe Thar","status":"Complete","dam_type":"","function":"Irrigation","river":"","state":"","basin":"","capacity_mw":null,"height_m":null,"year":"2004","risk":"low","color":"#2e7d32","label":"Low Risk (>80 km)","distanceKm":"Infinity"},"geometry":{"type":"Point","coordinates":[95.041531,21.902657]}},{"type":"Feature","properties":{"name":"North Pinle","status":"Complete","dam_type":"","function":"Irrigation","river":"Pinle","state":"","basin":"","capacity_mw":null,"height_m":null,"year":"1996","risk":"low","color":"#2e7d32","label":"Low Risk (>80 km)","distanceKm":"Infinity"},"geometry":{"type":"Point","coordinates":[95.5687,21.659382]}},{"type":"Feature","properties":{"name":"North Yamar (1)","status":"Complete","dam_type":"","function":"Irrigation","river":"","state":"","basin":"","capacity_mw":null,"height_m":null,"year":"1998","risk":"low","color":"#2e7d32","label":"Low Risk (>80 km)","distanceKm":"Infinity"},"geometry":{"type":"Point","coordinates":[94.67744,22.053354]}},{"type":"Feature","properties":{"name":"Nwegway","status":"Complete","dam_type":"","function":"Irrigation","river":"","state":"","basin":"","capacity_mw":null,"height_m":null,"year":"1993","risk":"low","color":"#2e7d32","label":"Low Risk (>80 km)","distanceKm":"Infinity"},"geometry":{"type":"Point","coordinates":[95.303983,22.008236]}},{"type":"Feature","properties":{"name":"Nyaung-gaing","status":"Complete","dam_type":"","function":"Irrigation","river":"Nyaung-gaing","state":"","basin":"","capacity_mw":null,"height_m":null,"year":"1999","risk":"low","color":"#2e7d32","label":"Low Risk (>80 km)","distanceKm":"Infinity"},"geometry":{"type":"Point","coordinates":[95.14163,18.797819]}},{"type":"Feature","properties":{"name":"Nyaunggone","status":"Complete","dam_type":"","function":"Irrigation","river":"","state":"","basin":"","capacity_mw":null,"height_m":null,"year":"2005","risk":"high","color":"#d32f2f","label":"High Risk (0–30 km)","distanceKm":"13.7"},"geometry":{"type":"Point","coordinates":[95.819567,20.789507]}},{"type":"Feature","properties":{"name":"Pade","status":"Complete","dam_type":"","function":"Irrigation","river":"Pade","state":"","basin":"","capacity_mw":null,"height_m":null,"year":"2005","risk":"low","color":"#2e7d32","label":"Low Risk (>80 km)","distanceKm":"Infinity"},"geometry":{"type":"Point","coordinates":[95.610306,19.212315]}},{"type":"Feature","properties":{"name":"Palin","status":"Complete","dam_type":"","function":"Irrigation","river":"Palin","state":"","basin":"","capacity_mw":null,"height_m":null,"year":"2001","risk":"low","color":"#2e7d32","label":"Low Risk (>80 km)","distanceKm":"Infinity"},"geometry":{"type":"Point","coordinates":[95.525824,20.291535]}},{"type":"Feature","properties":{"name":"Pashe","status":"Planned","dam_type":"","function":"Hydropower","river":"N'Mai","state":"","basin":"","capacity_mw":null,"height_m":null,"year":"2021","risk":"low","color":"#2e7d32","label":"Low Risk (>80 km)","distanceKm":"Infinity"},"geometry":{"type":"Point","coordinates":[98.289919,26.476081]}},{"type":"Feature","properties":{"name":"Paunggadaw","status":"Complete","dam_type":"","function":"Irrigation","river":"Paunggadaw","state":"","basin":"","capacity_mw":null,"height_m":null,"year":"2002","risk":"low","color":"#2e7d32","label":"Low Risk (>80 km)","distanceKm":"Infinity"},"geometry":{"type":"Point","coordinates":[95.589723,21.81169]}},{"type":"Feature","properties":{"name":"Paunglinn","status":"Complete","dam_type":"","function":"Irrigation","river":"Paunglinn","state":"","basin":"","capacity_mw":null,"height_m":null,"year":"2004","risk":"medium","color":"#ed6c02","label":"Medium Risk (30–80 km)","distanceKm":"38.5"},"geometry":{"type":"Point","coordinates":[96.095995,17.509063]}},{"type":"Feature","properties":{"name":"Pegyi","status":"Complete","dam_type":"","function":"Irrigation","river":"Pegyi","state":"","basin":"","capacity_mw":null,"height_m":null,"year":"2006","risk":"low","color":"#2e7d32","label":"Low Risk (>80 km)","distanceKm":"Infinity"},"geometry":{"type":"Point","coordinates":[95.637255,23.013559]}},{"type":"Feature","properties":{"name":"Phaunggada","status":"Complete","dam_type":"","function":"Irrigation","river":"","state":"","basin":"","capacity_mw":null,"height_m":null,"year":"2005","risk":"low","color":"#2e7d32","label":"Low Risk (>80 km)","distanceKm":"Infinity"},"geometry":{"type":"Point","coordinates":[95.070568,22.021024]}},{"type":"Feature","properties":{"name":"Phizaw","status":"Planned","dam_type":"","function":"Hydropower","river":"May Hka","state":"","basin":"","capacity_mw":null,"height_m":null,"year":"2026","risk":"low","color":"#2e7d32","label":"Low Risk (>80 km)","distanceKm":"Infinity"},"geometry":{"type":"Point","coordinates":[98.385556,26.827594]}},{"type":"Feature","properties":{"name":"Phugyi","status":"Complete","dam_type":"","function":"Water Supply","river":"","state":"","basin":"","capacity_mw":null,"height_m":null,"year":null,"risk":"medium","color":"#ed6c02","label":"Medium Risk (30–80 km)","distanceKm":"45.1"},"geometry":{"type":"Point","coordinates":[96.042454,17.245914]}},{"type":"Feature","properties":{"name":"Pinn Chaung","status":"Complete","dam_type":"","function":"Irrigation","river":"Pinn Chaung","state":"","basin":"","capacity_mw":null,"height_m":null,"year":"1998","risk":"low","color":"#2e7d32","label":"Low Risk (>80 km)","distanceKm":"Infinity"},"geometry":{"type":"Point","coordinates":[95.300929,20.712043]}},{"type":"Feature","properties":{"name":"Popa","status":"Complete","dam_type":"","function":"Irrigation","river":"","state":"","basin":"","capacity_mw":null,"height_m":null,"year":null,"risk":"low","color":"#2e7d32","label":"Low Risk (>80 km)","distanceKm":"Infinity"},"geometry":{"type":"Point","coordinates":[95.247579,20.808545]}},{"type":"Feature","properties":{"name":"Samon","status":"Complete","dam_type":"","function":"Irrigation","river":"Samon","state":"","basin":"","capacity_mw":null,"height_m":null,"year":"1993","risk":"high","color":"#d32f2f","label":"High Risk (0–30 km)","distanceKm":"20.2"},"geometry":{"type":"Point","coordinates":[96.136176,20.938996]}},{"type":"Feature","properties":{"name":"Sarlingyi","status":"Complete","dam_type":"","function":"Irrigation","river":"Sarlingyi","state":"","basin":"","capacity_mw":null,"height_m":null,"year":"2004","risk":"low","color":"#2e7d32","label":"Low Risk (>80 km)","distanceKm":"Infinity"},"geometry":{"type":"Point","coordinates":[95.066611,21.981113]}},{"type":"Feature","properties":{"name":"Sedawgyi","status":"Complete","dam_type":"","function":"Multi-purpose","river":"Chaung Ma Gyi","state":"","basin":"","capacity_mw":null,"height_m":null,"year":"1989","risk":"medium","color":"#ed6c02","label":"Medium Risk (30–80 km)","distanceKm":"41.6"},"geometry":{"type":"Point","coordinates":[96.323053,22.348589]}},{"type":"Feature","properties":{"name":"Shanma-Nge","status":"Complete","dam_type":"","function":"Irrigation","river":"","state":"","basin":"","capacity_mw":null,"height_m":null,"year":"2009","risk":"low","color":"#2e7d32","label":"Low Risk (>80 km)","distanceKm":"Infinity"},"geometry":{"type":"Point","coordinates":[95.597897,20.839191]}},{"type":"Feature","properties":{"name":"Shwedaung","status":"Complete","dam_type":"","function":"Irrigation","river":"Kalar Chaung","state":"","basin":"","capacity_mw":null,"height_m":null,"year":"1992","risk":"low","color":"#2e7d32","label":"Low Risk (>80 km)","distanceKm":"Infinity"},"geometry":{"type":"Point","coordinates":[95.252426,18.710748]}},{"type":"Feature","properties":{"name":"Shwezaye","status":"Cancelled","dam_type":"","function":"Hydropower","river":"Chindwin","state":"","basin":"","capacity_mw":null,"height_m":null,"year":"n/a","risk":"low","color":"#2e7d32","label":"Low Risk (>80 km)","distanceKm":"Infinity"},"geometry":{"type":"Point","coordinates":[94.9989,22.33525]}},{"type":"Feature","properties":{"name":"Sin Chaung","status":"Complete","dam_type":"","function":"Irrigation","river":"Sin Chaung","state":"","basin":"","capacity_mw":null,"height_m":null,"year":"1994","risk":"low","color":"#2e7d32","label":"Low Risk (>80 km)","distanceKm":"Infinity"},"geometry":{"type":"Point","coordinates":[95.16705,21.496183]}},{"type":"Feature","properties":{"name":"Sindewa","status":"Complete","dam_type":"","function":"Irrigation","river":"Sindewa","state":"","basin":"","capacity_mw":null,"height_m":null,"year":"1996","risk":"low","color":"#2e7d32","label":"Low Risk (>80 km)","distanceKm":"Infinity"},"geometry":{"type":"Point","coordinates":[95.305956,21.118182]}},{"type":"Feature","properties":{"name":"Sinlan","status":"Complete","dam_type":"","function":"Irrigation","river":"Sinlan","state":"","basin":"","capacity_mw":null,"height_m":null,"year":"2002","risk":"medium","color":"#ed6c02","label":"Medium Risk (30–80 km)","distanceKm":"53.4"},"geometry":{"type":"Point","coordinates":[96.436115,22.074457]}},{"type":"Feature","properties":{"name":"South Khayan","status":"Complete","dam_type":"","function":"Irrigation","river":"Khayan","state":"","basin":"","capacity_mw":null,"height_m":null,"year":"1993","risk":"low","color":"#2e7d32","label":"Low Risk (>80 km)","distanceKm":"Infinity"},"geometry":{"type":"Point","coordinates":[94.028495,22.598882]}},{"type":"Feature","properties":{"name":"South Nawin (2)","status":"Complete","dam_type":"","function":"Irrigation","river":"South Nawin","state":"","basin":"","capacity_mw":null,"height_m":null,"year":"1994","risk":"low","color":"#2e7d32","label":"Low Risk (>80 km)","distanceKm":"Infinity"},"geometry":{"type":"Point","coordinates":[95.492622,18.959728]}},{"type":"Feature","properties":{"name":"South Pinle","status":"Complete","dam_type":"","function":"Irrigation","river":"Pinle","state":"","basin":"","capacity_mw":null,"height_m":null,"year":"1994","risk":"low","color":"#2e7d32","label":"Low Risk (>80 km)","distanceKm":"Infinity"},"geometry":{"type":"Point","coordinates":[95.549981,21.641813]}},{"type":"Feature","properties":{"name":"South Yamar","status":"Complete","dam_type":"","function":"Irrigation","river":"Yamar Taung","state":"","basin":"","capacity_mw":null,"height_m":null,"year":"2000","risk":"low","color":"#2e7d32","label":"Low Risk (>80 km)","distanceKm":"Infinity"},"geometry":{"type":"Point","coordinates":[94.736177,21.821946]}},{"type":"Feature","properties":{"name":"Sunchaung","status":"Complete","dam_type":"","function":"Irrigation","river":"Sun Creek","state":"","basin":"","capacity_mw":null,"height_m":null,"year":null,"risk":"low","color":"#2e7d32","label":"Low Risk (>80 km)","distanceKm":"Infinity"},"geometry":{"type":"Point","coordinates":[95.584486,20.169512]}},{"type":"Feature","properties":{"name":"Sunlun","status":"Complete","dam_type":"","function":"Irrigation","river":"Sunlun","state":"","basin":"","capacity_mw":null,"height_m":null,"year":"1994","risk":"low","color":"#2e7d32","label":"Low Risk (>80 km)","distanceKm":"Infinity"},"geometry":{"type":"Point","coordinates":[95.416244,21.417041]}},{"type":"Feature","properties":{"name":"Taungnawin","status":"Complete","dam_type":"","function":"Irrigation","river":"Taungnawin Creek","state":"","basin":"","capacity_mw":null,"height_m":null,"year":null,"risk":"low","color":"#2e7d32","label":"Low Risk (>80 km)","distanceKm":"Infinity"},"geometry":{"type":"Point","coordinates":[95.578598,18.922544]}},{"type":"Feature","properties":{"name":"Taungnyo","status":"Complete","dam_type":"","function":"Irrigation","river":"Taungnyo","state":"","basin":"","capacity_mw":null,"height_m":null,"year":"1996","risk":"high","color":"#d32f2f","label":"High Risk (0–30 km)","distanceKm":"1.2"},"geometry":{"type":"Point","coordinates":[95.969404,20.452426]}},{"type":"Feature","properties":{"name":"Taungtha","status":"Complete","dam_type":"","function":"Irrigation","river":"Taungtha","state":"","basin":"","capacity_mw":null,"height_m":null,"year":"1997","risk":"low","color":"#2e7d32","label":"Low Risk (>80 km)","distanceKm":"Infinity"},"geometry":{"type":"Point","coordinates":[95.476952,21.268241]}},{"type":"Feature","properties":{"name":"Thaphan Chaung","status":"Complete","dam_type":"","function":"Irrigation","river":"Thaphan Chaung","state":"","basin":"","capacity_mw":null,"height_m":null,"year":"1990","risk":"high","color":"#d32f2f","label":"High Risk (0–30 km)","distanceKm":"11.5"},"geometry":{"type":"Point","coordinates":[95.864282,20.515519]}},{"type":"Feature","properties":{"name":"Thapanzeik","status":"Complete","dam_type":"","function":"Multi-purpose","river":"Mu","state":"","basin":"","capacity_mw":null,"height_m":null,"year":"2002","risk":"low","color":"#2e7d32","label":"Low Risk (>80 km)","distanceKm":"Infinity"},"geometry":{"type":"Point","coordinates":[95.354794,23.306586]}},{"type":"Feature","properties":{"name":"Thazi","status":"Complete","dam_type":"","function":"Irrigation","river":"Thazi","state":"","basin":"","capacity_mw":null,"height_m":null,"year":"1995","risk":"low","color":"#2e7d32","label":"Low Risk (>80 km)","distanceKm":"Infinity"},"geometry":{"type":"Point","coordinates":[95.262088,22.240321]}},{"type":"Feature","properties":{"name":"The-gaw","status":"Complete","dam_type":"","function":"Irrigation","river":"The-gaw","state":"","basin":"","capacity_mw":null,"height_m":null,"year":"2000","risk":"medium","color":"#ed6c02","label":"Medium Risk (30–80 km)","distanceKm":"59.9"},"geometry":{"type":"Point","coordinates":[95.866928,17.816109]}},{"type":"Feature","properties":{"name":"Thettaw","status":"Complete","dam_type":"","function":"Irrigation","river":"Thettaw","state":"","basin":"","capacity_mw":null,"height_m":null,"year":"1995","risk":"high","color":"#d32f2f","label":"High Risk (0–30 km)","distanceKm":"26.1"},"geometry":{"type":"Point","coordinates":[96.210114,20.711113]}},{"type":"Feature","properties":{"name":"Thinbon","status":"Complete","dam_type":"","function":"Irrigation","river":"Thinbon","state":"","basin":"","capacity_mw":null,"height_m":null,"year":"2003","risk":"high","color":"#d32f2f","label":"High Risk (0–30 km)","distanceKm":"23.7"},"geometry":{"type":"Point","coordinates":[95.712494,20.971218]}},{"type":"Feature","properties":{"name":"Thirinandar","status":"Complete","dam_type":"","function":"Irrigation","river":"","state":"","basin":"","capacity_mw":null,"height_m":null,"year":"2004","risk":"low","color":"#2e7d32","label":"Low Risk (>80 km)","distanceKm":"Infinity"},"geometry":{"type":"Point","coordinates":[94.932945,21.51692]}},{"type":"Feature","properties":{"name":"Thonze","status":"Complete","dam_type":"","function":"Irrigation","river":"Thonze","state":"","basin":"","capacity_mw":null,"height_m":null,"year":"2002","risk":"medium","color":"#ed6c02","label":"Medium Risk (30–80 km)","distanceKm":"51.6"},"geometry":{"type":"Point","coordinates":[95.951677,17.739216]}},{"type":"Feature","properties":{"name":"Tum Baing","status":"Planned","dam_type":"","function":"Hydropower","river":"Tum Baing Hka","state":"","basin":"","capacity_mw":null,"height_m":null,"year":null,"risk":"low","color":"#2e7d32","label":"Low Risk (>80 km)","distanceKm":"Infinity"},"geometry":{"type":"Point","coordinates":[97.963157,25.48725]}},{"type":"Feature","properties":{"name":"Upper Bu","status":"Planned","dam_type":"","function":"Hydropower","river":"","state":"","basin":"","capacity_mw":null,"height_m":null,"year":"2021","risk":"low","color":"#2e7d32","label":"Low Risk (>80 km)","distanceKm":"Infinity"},"geometry":{"type":"Point","coordinates":[94.037043,20.803853]}},{"type":"Feature","properties":{"name":"Upper Yeywa","status":"Under Construction","dam_type":"","function":"Hydropower","river":"Myitnge","state":"","basin":"","capacity_mw":null,"height_m":null,"year":"2018","risk":"low","color":"#2e7d32","label":"Low Risk (>80 km)","distanceKm":"128.1"},"geometry":{"type":"Point","coordinates":[97.162877,22.240208]}},{"type":"Feature","properties":{"name":"Wegyi","status":"Complete","dam_type":"","function":"Irrigation","river":"Wegyi","state":"","basin":"","capacity_mw":null,"height_m":null,"year":"2000","risk":"low","color":"#2e7d32","label":"Low Risk (>80 km)","distanceKm":"Infinity"},"geometry":{"type":"Point","coordinates":[95.609994,18.622783]}},{"type":"Feature","properties":{"name":"Welaung","status":"Complete","dam_type":"","function":"Irrigation","river":"Welaung","state":"","basin":"","capacity_mw":null,"height_m":null,"year":"1998","risk":"low","color":"#2e7d32","label":"Low Risk (>80 km)","distanceKm":"Infinity"},"geometry":{"type":"Point","coordinates":[95.396977,21.092847]}},{"type":"Feature","properties":{"name":"Yanpe","status":"Complete","dam_type":"","function":"Irrigation","river":"Yanpe","state":"","basin":"","capacity_mw":null,"height_m":null,"year":"2003","risk":"low","color":"#2e7d32","label":"Low Risk (>80 km)","distanceKm":"Infinity"},"geometry":{"type":"Point","coordinates":[95.517982,19.790566]}},{"type":"Feature","properties":{"name":"Yazagyo","status":"Complete","dam_type":"","function":"Multi-purpose","river":"Nay Yin Za Yar","state":"","basin":"","capacity_mw":null,"height_m":null,"year":"2015","risk":"low","color":"#2e7d32","label":"Low Risk (>80 km)","distanceKm":"Infinity"},"geometry":{"type":"Point","coordinates":[94.09707,23.53123]}},{"type":"Feature","properties":{"name":"Yenam","status":"Planned","dam_type":"","function":"Hydropower","river":"May Hka","state":"","basin":"","capacity_mw":null,"height_m":null,"year":"2026","risk":"low","color":"#2e7d32","label":"Low Risk (>80 km)","distanceKm":"Infinity"},"geometry":{"type":"Point","coordinates":[97.879027,27.727616]}},{"type":"Feature","properties":{"name":"Yinshe","status":"Complete","dam_type":"","function":"Irrigation","river":"","state":"","basin":"","capacity_mw":null,"height_m":null,"year":"2002","risk":"low","color":"#2e7d32","label":"Low Risk (>80 km)","distanceKm":"Infinity"},"geometry":{"type":"Point","coordinates":[94.572117,19.962479]}},{"type":"Feature","properties":{"name":"Zawgyi","status":"Complete","dam_type":"","function":"Hydropower","river":"Zawgyi","state":"","basin":"","capacity_mw":null,"height_m":null,"year":"1995","risk":"low","color":"#2e7d32","label":"Low Risk (>80 km)","distanceKm":"98.4"},"geometry":{"type":"Point","coordinates":[96.873564,21.565078]}},{"type":"Feature","properties":{"name":"Zeedaw","status":"Complete","dam_type":"","function":"Irrigation","river":"Nyaung Oat","state":"","basin":"","capacity_mw":null,"height_m":null,"year":"2000","risk":"high","color":"#d32f2f","label":"High Risk (0–30 km)","distanceKm":"15.4"},"geometry":{"type":"Point","coordinates":[95.782275,21.28973]}},{"type":"Feature","properties":{"name":"Dam near 20.81N 95.72E","status":"Complete","dam_type":"","function":"Irrigation","river":"","state":"","basin":"","capacity_mw":null,"height_m":null,"year":null,"risk":"high","color":"#d32f2f","label":"High Risk (0–30 km)","distanceKm":"23.8"},"geometry":{"type":"Point","coordinates":[95.720291,20.811847]}},{"type":"Feature","properties":{"name":"Dam near 21.37N 95.80E","status":"Complete","dam_type":"","function":"Irrigation","river":"","state":"","basin":"","capacity_mw":null,"height_m":null,"year":null,"risk":"high","color":"#d32f2f","label":"High Risk (0–30 km)","distanceKm":"13.4"},"geometry":{"type":"Point","coordinates":[95.798634,21.37304]}},{"type":"Feature","properties":{"name":"Dam near 21.34N 95.81E","status":"Complete","dam_type":"","function":"Irrigation","river":"","state":"","basin":"","capacity_mw":null,"height_m":null,"year":null,"risk":"high","color":"#d32f2f","label":"High Risk (0–30 km)","distanceKm":"12.2"},"geometry":{"type":"Point","coordinates":[95.810878,21.340483]}},{"type":"Feature","properties":{"name":"Dam near 23.36N 95.66E","status":"Complete","dam_type":"","function":"Irrigation","river":"","state":"","basin":"","capacity_mw":null,"height_m":null,"year":null,"risk":"low","color":"#2e7d32","label":"Low Risk (>80 km)","distanceKm":"Infinity"},"geometry":{"type":"Point","coordinates":[95.660486,23.361809]}},{"type":"Feature","properties":{"name":"Dam near 23.13N 95.58E","status":"Complete","dam_type":"","function":"Irrigation","river":"","state":"","basin":"","capacity_mw":null,"height_m":null,"year":"1998","risk":"low","color":"#2e7d32","label":"Low Risk (>80 km)","distanceKm":"Infinity"},"geometry":{"type":"Point","coordinates":[95.577322,23.132152]}},{"type":"Feature","properties":{"name":"Dam near 20.11N 95.60E","status":"Complete","dam_type":"","function":"Irrigation","river":"","state":"","basin":"","capacity_mw":null,"height_m":null,"year":null,"risk":"low","color":"#2e7d32","label":"Low Risk (>80 km)","distanceKm":"Infinity"},"geometry":{"type":"Point","coordinates":[95.601787,20.114814]}},{"type":"Feature","properties":{"name":"Dam near 20.78N 95.34E","status":"Complete","dam_type":"","function":"Irrigation","river":"","state":"","basin":"","capacity_mw":null,"height_m":null,"year":null,"risk":"low","color":"#2e7d32","label":"Low Risk (>80 km)","distanceKm":"Infinity"},"geometry":{"type":"Point","coordinates":[95.342022,20.775632]}},{"type":"Feature","properties":{"name":"Dam near 19.07N 95.44E","status":"Complete","dam_type":"","function":"Irrigation","river":"","state":"","basin":"","capacity_mw":null,"height_m":null,"year":null,"risk":"low","color":"#2e7d32","label":"Low Risk (>80 km)","distanceKm":"Infinity"},"geometry":{"type":"Point","coordinates":[95.44187,19.06693]}},{"type":"Feature","properties":{"name":"Dam near 20.70N 95.47E","status":"Complete","dam_type":"","function":"Irrigation","river":"","state":"","basin":"","capacity_mw":null,"height_m":null,"year":null,"risk":"low","color":"#2e7d32","label":"Low Risk (>80 km)","distanceKm":"Infinity"},"geometry":{"type":"Point","coordinates":[95.467041,20.704069]}},{"type":"Feature","properties":{"name":"Dam near 20.47N 96.08E","status":"Complete","dam_type":"","function":"Irrigation","river":"","state":"","basin":"","capacity_mw":null,"height_m":null,"year":null,"risk":"high","color":"#d32f2f","label":"High Risk (0–30 km)","distanceKm":"9.9"},"geometry":{"type":"Point","coordinates":[96.075001,20.468555]}},{"type":"Feature","properties":{"name":"Dam near 18.53N 95.72E","status":"Complete","dam_type":"","function":"Irrigation","river":"","state":"","basin":"","capacity_mw":null,"height_m":null,"year":null,"risk":"medium","color":"#ed6c02","label":"Medium Risk (30–80 km)","distanceKm":"67.2"},"geometry":{"type":"Point","coordinates":[95.718861,18.533566]}},{"type":"Feature","properties":{"name":"Dam near 20.60N 95.90E","status":"Complete","dam_type":"","function":"Irrigation","river":"","state":"","basin":"","capacity_mw":null,"height_m":null,"year":null,"risk":"high","color":"#d32f2f","label":"High Risk (0–30 km)","distanceKm":"7.4"},"geometry":{"type":"Point","coordinates":[95.89696,20.597321]}},{"type":"Feature","properties":{"name":"Dam near 20.73N 95.83E","status":"Complete","dam_type":"","function":"Irrigation","river":"","state":"","basin":"","capacity_mw":null,"height_m":null,"year":null,"risk":"high","color":"#d32f2f","label":"High Risk (0–30 km)","distanceKm":"13.6"},"geometry":{"type":"Point","coordinates":[95.826486,20.726713]}},{"type":"Feature","properties":{"name":"Dam near 20.72N 95.90E","status":"Complete","dam_type":"","function":"Irrigation","river":"","state":"","basin":"","capacity_mw":null,"height_m":null,"year":null,"risk":"high","color":"#d32f2f","label":"High Risk (0–30 km)","distanceKm":"5.6"},"geometry":{"type":"Point","coordinates":[95.903834,20.721658]}},{"type":"Feature","properties":{"name":"Dam near 20.85N 96.03E","status":"Complete","dam_type":"","function":"Irrigation","river":"","state":"","basin":"","capacity_mw":null,"height_m":null,"year":null,"risk":"high","color":"#d32f2f","label":"High Risk (0–30 km)","distanceKm":"8.3"},"geometry":{"type":"Point","coordinates":[96.02702,20.854343]}},{"type":"Feature","properties":{"name":"Dam near 21.04N 95.83E","status":"Complete","dam_type":"","function":"Irrigation","river":"","state":"","basin":"","capacity_mw":null,"height_m":null,"year":null,"risk":"high","color":"#d32f2f","label":"High Risk (0–30 km)","distanceKm":"10.9"},"geometry":{"type":"Point","coordinates":[95.833504,21.038121]}},{"type":"Feature","properties":{"name":"Dam near 21.05N 95.83E","status":"Complete","dam_type":"","function":"Irrigation","river":"","state":"","basin":"","capacity_mw":null,"height_m":null,"year":null,"risk":"high","color":"#d32f2f","label":"High Risk (0–30 km)","distanceKm":"11.0"},"geometry":{"type":"Point","coordinates":[95.831831,21.050036]}},{"type":"Feature","properties":{"name":"Dam near 21.01N 95.73E","status":"Complete","dam_type":"","function":"Irrigation","river":"","state":"","basin":"","capacity_mw":null,"height_m":null,"year":null,"risk":"high","color":"#d32f2f","label":"High Risk (0–30 km)","distanceKm":"21.9"},"geometry":{"type":"Point","coordinates":[95.728497,21.013475]}},{"type":"Feature","properties":{"name":"Dam near 21.74N 95.85E","status":"Complete","dam_type":"","function":"Irrigation","river":"","state":"","basin":"","capacity_mw":null,"height_m":null,"year":null,"risk":"high","color":"#d32f2f","label":"High Risk (0–30 km)","distanceKm":"7.4"},"geometry":{"type":"Point","coordinates":[95.846709,21.739152]}},{"type":"Feature","properties":{"name":"Dam near 21.77N 95.89E","status":"Complete","dam_type":"","function":"Irrigation","river":"","state":"","basin":"","capacity_mw":null,"height_m":null,"year":null,"risk":"high","color":"#d32f2f","label":"High Risk (0–30 km)","distanceKm":"2.7"},"geometry":{"type":"Point","coordinates":[95.892268,21.773814]}},{"type":"Feature","properties":{"name":"Dam near 21.47N 95.87E","status":"Complete","dam_type":"","function":"Irrigation","river":"","state":"","basin":"","capacity_mw":null,"height_m":null,"year":null,"risk":"high","color":"#d32f2f","label":"High Risk (0–30 km)","distanceKm":"6.0"},"geometry":{"type":"Point","coordinates":[95.8671,21.468135]}},{"type":"Feature","properties":{"name":"Dam near 18.65N 95.25E","status":"Complete","dam_type":"","function":"Irrigation","river":"","state":"","basin":"","capacity_mw":null,"height_m":null,"year":null,"risk":"low","color":"#2e7d32","label":"Low Risk (>80 km)","distanceKm":"Infinity"},"geometry":{"type":"Point","coordinates":[95.252143,18.651777]}},{"type":"Feature","properties":{"name":"Dam near 20.58N 96.17E","status":"Complete","dam_type":"","function":"Irrigation","river":"","state":"","basin":"","capacity_mw":null,"height_m":null,"year":null,"risk":"high","color":"#d32f2f","label":"High Risk (0–30 km)","distanceKm":"20.7"},"geometry":{"type":"Point","coordinates":[96.169439,20.583214]}},{"type":"Feature","properties":{"name":"Dam near 22.09N 95.86E","status":"Complete","dam_type":"","function":"Irrigation","river":"","state":"","basin":"","capacity_mw":null,"height_m":null,"year":null,"risk":"high","color":"#d32f2f","label":"High Risk (0–30 km)","distanceKm":"5.7"},"geometry":{"type":"Point","coordinates":[95.862392,22.09474]}},{"type":"Feature","properties":{"name":"Dam near 20.77N 95.35E","status":"Complete","dam_type":"","function":"Irrigation","river":"","state":"","basin":"","capacity_mw":null,"height_m":null,"year":null,"risk":"low","color":"#2e7d32","label":"Low Risk (>80 km)","distanceKm":"Infinity"},"geometry":{"type":"Point","coordinates":[95.35271,20.768534]}},{"type":"Feature","properties":{"name":"Dam near 20.76N 95.36E","status":"Complete","dam_type":"","function":"Irrigation","river":"","state":"","basin":"","capacity_mw":null,"height_m":null,"year":null,"risk":"low","color":"#2e7d32","label":"Low Risk (>80 km)","distanceKm":"Infinity"},"geometry":{"type":"Point","coordinates":[95.355246,20.762818]}},{"type":"Feature","properties":{"name":"Dam near 20.74N 95.38E","status":"Complete","dam_type":"","function":"Irrigation","river":"","state":"","basin":"","capacity_mw":null,"height_m":null,"year":null,"risk":"low","color":"#2e7d32","label":"Low Risk (>80 km)","distanceKm":"Infinity"},"geometry":{"type":"Point","coordinates":[95.383724,20.740185]}},{"type":"Feature","properties":{"name":"Dam near 20.76N 95.39E","status":"Complete","dam_type":"","function":"Irrigation","river":"","state":"","basin":"","capacity_mw":null,"height_m":null,"year":null,"risk":"low","color":"#2e7d32","label":"Low Risk (>80 km)","distanceKm":"Infinity"},"geometry":{"type":"Point","coordinates":[95.386066,20.758838]}},{"type":"Feature","properties":{"name":"Dam near 20.75N 95.40E","status":"Complete","dam_type":"","function":"Irrigation","river":"","state":"","basin":"","capacity_mw":null,"height_m":null,"year":null,"risk":"low","color":"#2e7d32","label":"Low Risk (>80 km)","distanceKm":"Infinity"},"geometry":{"type":"Point","coordinates":[95.400055,20.751761]}},{"type":"Feature","properties":{"name":"Dam near 20.72N 95.42E","status":"Complete","dam_type":"","function":"Irrigation","river":"","state":"","basin":"","capacity_mw":null,"height_m":null,"year":null,"risk":"low","color":"#2e7d32","label":"Low Risk (>80 km)","distanceKm":"Infinity"},"geometry":{"type":"Point","coordinates":[95.424149,20.720078]}},{"type":"Feature","properties":{"name":"Dam near 21.55N 95.54E","status":"Complete","dam_type":"","function":"Irrigation","river":"","state":"","basin":"","capacity_mw":null,"height_m":null,"year":null,"risk":"low","color":"#2e7d32","label":"Low Risk (>80 km)","distanceKm":"Infinity"},"geometry":{"type":"Point","coordinates":[95.540688,21.546729]}},{"type":"Feature","properties":{"name":"Dam near 21.51N 95.53E","status":"Complete","dam_type":"","function":"Irrigation","river":"","state":"","basin":"","capacity_mw":null,"height_m":null,"year":null,"risk":"low","color":"#2e7d32","label":"Low Risk (>80 km)","distanceKm":"Infinity"},"geometry":{"type":"Point","coordinates":[95.534877,21.505946]}},{"type":"Feature","properties":{"name":"Dam near 21.39N 95.52E","status":"Complete","dam_type":"","function":"Irrigation","river":"","state":"","basin":"","capacity_mw":null,"height_m":null,"year":null,"risk":"low","color":"#2e7d32","label":"Low Risk (>80 km)","distanceKm":"Infinity"},"geometry":{"type":"Point","coordinates":[95.518783,21.385758]}},{"type":"Feature","properties":{"name":"Dam near 20.87N 94.37E","status":"Complete","dam_type":"","function":"Multi-purpose","river":"","state":"","basin":"","capacity_mw":null,"height_m":null,"year":null,"risk":"low","color":"#2e7d32","label":"Low Risk (>80 km)","distanceKm":"Infinity"},"geometry":{"type":"Point","coordinates":[94.367835,20.869511]}},{"type":"Feature","properties":{"name":"Dam near 18.28N 95.86E","status":"Complete","dam_type":"","function":"Irrigation","river":"","state":"","basin":"","capacity_mw":null,"height_m":null,"year":null,"risk":"medium","color":"#ed6c02","label":"Medium Risk (30–80 km)","distanceKm":"56.0"},"geometry":{"type":"Point","coordinates":[95.855019,18.281025]}},{"type":"Feature","properties":{"name":"Dam near 17.62N 96.01E","status":"Complete","dam_type":"","function":"Irrigation","river":"","state":"","basin":"","capacity_mw":null,"height_m":null,"year":null,"risk":"medium","color":"#ed6c02","label":"Medium Risk (30–80 km)","distanceKm":"46.0"},"geometry":{"type":"Point","coordinates":[96.014876,17.623217]}},{"type":"Feature","properties":{"name":"Dam near 17.55N 96.37E","status":"Complete","dam_type":"","function":"Irrigation","river":"","state":"","basin":"","capacity_mw":null,"height_m":null,"year":null,"risk":"high","color":"#d32f2f","label":"High Risk (0–30 km)","distanceKm":"9.6"},"geometry":{"type":"Point","coordinates":[96.366141,17.548282]}},{"type":"Feature","properties":{"name":"Lower Nam Pawn","status":"Planned","dam_type":"","function":"Hydropower","river":"Nam Pawn","state":"","basin":"","capacity_mw":null,"height_m":null,"year":null,"risk":"low","color":"#2e7d32","label":"Low Risk (>80 km)","distanceKm":"124.8"},"geometry":{"type":"Point","coordinates":[97.417853,19.480045]}},{"type":"Feature","properties":{"name":"Mobyè","status":"Complete","dam_type":"","function":"Irrigation","river":"Balu Chaung","state":"","basin":"","capacity_mw":null,"height_m":null,"year":"1971","risk":"low","color":"#2e7d32","label":"Low Risk (>80 km)","distanceKm":"99.8"},"geometry":{"type":"Point","coordinates":[97.097256,19.792636]}},{"type":"Feature","properties":{"name":"Nam Hka","status":"Proposed","dam_type":"","function":"Hydropower","river":"Nam Hka","state":"","basin":"","capacity_mw":null,"height_m":null,"year":null,"risk":"low","color":"#2e7d32","label":"Low Risk (>80 km)","distanceKm":"Infinity"},"geometry":{"type":"Point","coordinates":[98.772066,22.056938]}},{"type":"Feature","properties":{"name":"Ngwedaung","status":"Complete","dam_type":"","function":"Irrigation","river":"Ngwetaung","state":"","basin":"","capacity_mw":null,"height_m":null,"year":"1965","risk":"low","color":"#2e7d32","label":"Low Risk (>80 km)","distanceKm":"99.6"},"geometry":{"type":"Point","coordinates":[97.163331,19.555742]}},{"type":"Feature","properties":{"name":"Shwenattaung","status":"Complete","dam_type":"","function":"Irrigation","river":"Shwenattaung","state":"","basin":"","capacity_mw":null,"height_m":null,"year":"1996","risk":"low","color":"#2e7d32","label":"Low Risk (>80 km)","distanceKm":"127.5"},"geometry":{"type":"Point","coordinates":[97.657402,16.411455]}},{"type":"Feature","properties":{"name":"Upper Baluchaung 1","status":"Under Construction","dam_type":"","function":"Hydropower","river":"Balchuang","state":"","basin":"","capacity_mw":null,"height_m":null,"year":"2016","risk":"medium","color":"#ed6c02","label":"Medium Risk (30–80 km)","distanceKm":"73.8"},"geometry":{"type":"Point","coordinates":[96.689153,20.478991]}},{"type":"Feature","properties":{"name":"Upper Haw Kham","status":"Proposed","dam_type":"","function":"Hydropower","river":"Nam Pawn","state":"","basin":"","capacity_mw":null,"height_m":null,"year":"2031","risk":"low","color":"#2e7d32","label":"Low Risk (>80 km)","distanceKm":"112.2"},"geometry":{"type":"Point","coordinates":[97.344749,19.177977]}},{"type":"Feature","properties":{"name":"Upper Nam Pawn","status":"Planned","dam_type":"","function":"Hydropower","river":"Nam Pawn","state":"","basin":"","capacity_mw":null,"height_m":null,"year":null,"risk":"low","color":"#2e7d32","label":"Low Risk (>80 km)","distanceKm":"136.8"},"geometry":{"type":"Point","coordinates":[97.40098,19.995674]}},{"type":"Feature","properties":{"name":"Upper Salween","status":"Planned","dam_type":"","function":"Hydropower","river":"Salween","state":"","basin":"","capacity_mw":null,"height_m":null,"year":"2025","risk":"low","color":"#2e7d32","label":"Low Risk (>80 km)","distanceKm":"Infinity"},"geometry":{"type":"Point","coordinates":[98.601643,23.423472]}},{"type":"Feature","properties":{"name":"Wanpon","status":"Complete","dam_type":"","function":"Irrigation","river":"Wanpon","state":"","basin":"","capacity_mw":null,"height_m":null,"year":"2005","risk":"low","color":"#2e7d32","label":"Low Risk (>80 km)","distanceKm":"176.9"},"geometry":{"type":"Point","coordinates":[97.648021,20.938172]}},{"type":"Feature","properties":{"name":"Weigyi","status":"Planned","dam_type":"","function":"Hydropower","river":"Salween","state":"","basin":"","capacity_mw":null,"height_m":null,"year":null,"risk":"low","color":"#2e7d32","label":"Low Risk (>80 km)","distanceKm":"105.9"},"geometry":{"type":"Point","coordinates":[97.359484,18.632617]}},{"type":"Feature","properties":{"name":"Ywathit","status":"Planned","dam_type":"","function":"Hydropower","river":"Salween","state":"","basin":"","capacity_mw":null,"height_m":null,"year":"2025","risk":"low","color":"#2e7d32","label":"Low Risk (>80 km)","distanceKm":"Infinity"},"geometry":{"type":"Point","coordinates":[97.732943,19.777904]}},{"type":"Feature","properties":{"name":"Baluchaung Dam","status":"Complete","dam_type":"","function":"Hydropower","river":"Baluchaung","state":"","basin":"","capacity_mw":null,"height_m":null,"year":null,"risk":"low","color":"#2e7d32","label":"Low Risk (>80 km)","distanceKm":"115.6"},"geometry":{"type":"Point","coordinates":[97.31465,19.572117]}}]}